<?xml version="1.0" encoding="utf-8"?>
<kml xmlns="http://www.opengis.net/kml/2.2">
  <Document>
    <Placemark id="066f21f0-b90d-45bc-abaf-9132b9c62e0e">
      <name>Portugiesische Taverne</name>
      <description><![CDATA[Am Herrengarten 63<br />53229 Vilich-Müldorf]]></description>
      <Point>
        <coordinates>7.14704461398293,50.7543591259747</coordinates>
      </Point>
    </Placemark>
    <Placemark id="a931adb4-2bc7-4bb6-903d-67279f984500">
      <name>Restaurant Olive (gr. Küche)</name>
      <description><![CDATA[Telefon: +49 228 969569-50<br /><a href="http://www.olive-bonn.de/index.html" target="_blank">Website</a><br />Brüdergasse 12<br />53111 Bonn]]></description>
      <Point>
        <coordinates>7.10354632746651,50.7362751675741</coordinates>
      </Point>
    </Placemark>
    <Placemark id="2cf5385f-f755-4ccf-97bc-36437073c142">
      <name>Sieglinde</name>
      <description><![CDATA[Telefon: +49 2242 1459<br />Telefax: +49 2242 915787<br /><a href="mailto:info@sieglinde-hennef.de">info@sieglinde-hennef.de</a><br /><a href="http://www.sieglinde-hennef.de/" target="_blank">Website</a><br />Brückenweg 2<br />Siegburg]]></description>
      <Point>
        <coordinates>7.28266346702397,50.7886346223246</coordinates>
      </Point>
    </Placemark>
    <Placemark id="d50e70f3-1a8b-47c0-a772-9b3444ef60e2">
      <name>Stadtschreiber</name>
      <description><![CDATA[Kölner Straße 122<br />53840 Troisdorf]]></description>
      <Point>
        <coordinates>7.15251997488822,50.8163617480495</coordinates>
      </Point>
    </Placemark>
    <Placemark id="9ae32a09-d77c-4660-8148-5a261bd4f08c">
      <name>bühne</name>
      <Point>
        <coordinates>7.10552576519506,50.7369313666383</coordinates>
      </Point>
    </Placemark>
    <Placemark id="a5b7dbca-051e-4f35-8cb0-33470b62c9ce">
      <name>Aida</name>
      <description><![CDATA[Drachenburgstraße 29<br />]]></description>
      <Point>
        <coordinates>7.17636708816378,50.6661923636409</coordinates>
      </Point>
    </Placemark>
    <Placemark id="4efa799c-a349-4e7f-b345-0f43bc0c001d">
      <name>Der Spanier (Bistro)</name>
      <description><![CDATA[Bornheimer Straße 76<br />53111 Bonn]]></description>
      <Point>
        <coordinates>7.08805290409824,50.7370528039599</coordinates>
      </Point>
    </Placemark>
    <Placemark id="a6efe950-0d28-4615-a4aa-d53d31931f35">
      <name>Ristorante Borsalino</name>
      <Point>
        <coordinates>7.0924849222155,50.7394472607607</coordinates>
      </Point>
    </Placemark>
    <Placemark id="424e0ec5-082a-4e9d-b072-544742813e09">
      <name>Bodega</name>
      <Point>
        <coordinates>7.20637126781102,50.6417982679622</coordinates>
      </Point>
    </Placemark>
    <Placemark id="1e7362e3-2dd1-4c0f-8612-c175de1fe29b">
      <name>Kastanienhof</name>
      <description><![CDATA[Telefon: +49 2241 55 6 44<br /><a href="http://www.kastanienhof-siegburg.de/" target="_blank">Website</a><br />Auf der Papagei 2<br />53721 Siegburg]]></description>
      <Point>
        <coordinates>7.21752965533745,50.7979607493934</coordinates>
      </Point>
    </Placemark>
    <Placemark id="31948dc0-ee22-4950-9356-329804e99b4a">
      <name>Weinhaus Steinbach</name>
      <description><![CDATA[<a href="www.weinhaus-steinbach.de" target="_blank">Website</a><br />Spießgasse 2<br />53604 Bad Honnef]]></description>
      <Point>
        <coordinates>7.22523265484251,50.6521426034846</coordinates>
      </Point>
    </Placemark>
    <Placemark id="296cb13a-3710-46a7-8d05-139317b87dd8">
      <name>Grill-Restaurant an der Bitze</name>
      <description><![CDATA[Betreiber: Birgit Haas;Hans Arthur Haas<br />Telefon: 02244-6675<br />Gräfenhohner Straße 55f<br />53639 Königswinter]]></description>
      <Point>
        <coordinates>7.27705590261824,50.690397736267</coordinates>
      </Point>
    </Placemark>
    <Placemark id="845c4d84-a825-4f3a-8485-a221cfac3169">
      <name>Lambertus-Stube</name>
      <description><![CDATA[Telefon: +49 228 663261<br /><a href="http://www.lambertusstube.de/" target="_blank">Website</a><br />Lambertusweg 1<br />53121 Bonn]]></description>
      <Point>
        <coordinates>7.0487730801533,50.738514404772</coordinates>
      </Point>
    </Placemark>
    <Placemark id="d8b10b2a-d64a-4f4c-9b45-0785035606a0">
      <name>Restaurant Flo</name>
      <Point>
        <coordinates>7.15733160763024,50.8147992111265</coordinates>
      </Point>
    </Placemark>
    <Placemark id="821096c9-9bf4-4c1b-b15a-f91f1c910f1b">
      <name>Calabria</name>
      <Point>
        <coordinates>7.22815738974454,50.6440920917828</coordinates>
      </Point>
    </Placemark>
    <Placemark id="e6760eed-5e13-40cd-9133-9915792dba98">
      <name>Zafran Restaurant</name>
      <description><![CDATA[Telefon: 022861963920<br /><a href="mailto:schabnam%40afghanisches-restaurant.de">schabnam%40afghanisches-restaurant.de</a><br /><a href="http://www.afghanisches-restaurant.de" target="_blank">Website</a><br />Friesdorfer Straße 3<br />53173 Bonn]]></description>
      <Point>
        <coordinates>7.15206128168983,50.6859834006922</coordinates>
      </Point>
    </Placemark>
    <Placemark id="00b9156d-4d33-48af-9881-681b25e087df">
      <name>Taverna Opympia</name>
      <Point>
        <coordinates>7.15895881593589,50.8126048885235</coordinates>
      </Point>
    </Placemark>
    <Placemark id="188f804e-3d17-4e31-bbe8-80b0b24d73b1">
      <name>Münchhecke</name>
      <Point>
        <coordinates>7.26850647837217,50.7977006901424</coordinates>
      </Point>
    </Placemark>
    <Placemark id="bdf45e27-b2f5-4299-9448-d8c2b96478a4">
      <name>Hubertusklause</name>
      <description><![CDATA[<a href="http://www.qype.com/place/50244-Hubertusklause-Bonn" target="_blank">Website</a><br />Abtstraße 13<br />53225 Bonn]]></description>
      <Point>
        <coordinates>7.12726831883731,50.7600655734558</coordinates>
      </Point>
    </Placemark>
    <Placemark id="f40d4832-c7c9-48ce-877a-d364af765508">
      <name>Zur Tränke</name>
      <description><![CDATA[Wesselheideweg 101<br />53123 ]]></description>
      <Point>
        <coordinates>7.03430563800495,50.7036586565326</coordinates>
      </Point>
    </Placemark>
    <Placemark id="de07eff0-6752-4905-89c3-21dffacb132e">
      <name>O Tapeo</name>
      <Point>
        <coordinates>7.11825282664588,50.7383192923148</coordinates>
      </Point>
    </Placemark>
    <Placemark id="c63a09dc-e24e-42a5-9c3e-e11b0bbc2611">
      <name>Yen-Yen</name>
      <description><![CDATA[Telefon: +49 2241 1268772<br /><a href="http://www.yen-yen.de/" target="_blank">Website</a><br />Alte Poststraße 34<br />53840 Troisdorf]]></description>
      <Point>
        <coordinates>7.15800582900793,50.8139216884469</coordinates>
      </Point>
    </Placemark>
    <Placemark id="dc13ed25-50c3-4d4a-ab42-509827d50d9c">
      <name>An der Kommende</name>
      <description><![CDATA[Muffendorfer Hauptstraße 58<br />53177 Bonn]]></description>
      <Point>
        <coordinates>7.1605887191874,50.6710887692273</coordinates>
      </Point>
    </Placemark>
    <Placemark id="efffd643-abfa-45da-ae29-c0314659adb2">
      <name>Hotel Adler</name>
      <description><![CDATA[Betreiber: Petra Hübner<br />Telefon: 02236/378587<br />Telefax: 02236/378584<br /><a href="mailto:AdlerHotel@t-online.de">AdlerHotel@t-online.de</a><br /><a href="http://www.hotel-adler-wesseling.de" target="_blank">Website</a><br />Ahrstraße 31<br />50389 Wesseling]]></description>
      <Point>
        <coordinates>6.98622547802699,50.8143402645813</coordinates>
      </Point>
    </Placemark>
    <Placemark id="5647c6d9-76fb-45ce-a288-eb5e54a55399">
      <name>Joglis</name>
      <description><![CDATA[Telefon: 0228 24371237<br /><a href="mailto:tisch@joligs.de">tisch@joligs.de</a><br /><a href="http://www.joligs.de/" target="_blank">Website</a>]]></description>
      <Point>
        <coordinates>7.10156662024336,50.7237934116859</coordinates>
      </Point>
    </Placemark>
    <Placemark id="f519e0f4-2d2f-4ded-ab0b-7663b0136652">
      <name>Zur letzten Träne</name>
      <Point>
        <coordinates>7.20898401781488,50.8077657760993</coordinates>
      </Point>
    </Placemark>
    <Placemark id="e668d066-3b86-4881-afec-fc1fcc8b9ee7">
      <name>Restaurant 3-Giebelhaus</name>
      <description><![CDATA[Telefon: +49-2242-9040414<br /><a href="http://www.restaurant-3-giebelhaus.de" target="_blank">Website</a><br />Frankfurter Straße 12-16<br />53773 Hennef (Sieg)]]></description>
      <Point>
        <coordinates>7.29776133708894,50.7698921218871</coordinates>
      </Point>
    </Placemark>
    <Placemark id="08c05872-afce-4ecb-808c-115b38369bb5">
      <name>Nolden</name>
      <description><![CDATA[Telefon: +49 228 623304<br /><a href="http://www.gasthaus-nolden.de/" target="_blank">Website</a><br />Magdalenenstraße 33<br />53121 Bonn]]></description>
      <Point>
        <coordinates>7.07639977856958,50.7251646665622</coordinates>
      </Point>
    </Placemark>
    <Placemark id="3226e75b-6705-421d-9035-b13f74302d57">
      <name>Santorini</name>
      <Point>
        <coordinates>7.14346126031732,50.7782937611691</coordinates>
      </Point>
    </Placemark>
    <Placemark id="36818522-f0e1-4c1e-8663-d42076bf7b1c">
      <name>Calabria</name>
      <description><![CDATA[Telefon: +49-2241-1485940<br />Telefax: +49-2241-1485940<br /><a href="http://www.restaurant-calabria.de" target="_blank">Website</a><br />Am Herrengarten 1<br />53721 Siegburg]]></description>
      <Point>
        <coordinates>7.20707518766765,50.7959846851546</coordinates>
      </Point>
    </Placemark>
    <Placemark id="22dc1a84-b7f4-49cb-aceb-3bc9c28221b1">
      <name>AGGA (geschlossen)</name>
      <description><![CDATA[Frankfurter Straße 165<br />53840 Troisdorf]]></description>
      <Point>
        <coordinates>7.18259928762587,50.8122905324538</coordinates>
      </Point>
    </Placemark>
    <Placemark id="cae3a0a2-43f4-47f3-8d69-63122a52f3bb">
      <name>Roses</name>
      <description><![CDATA[Telefon: +49 228 4330653<br />Telefax: +492282270272<br /><a href="mailto:info@roses-bonn.de">info@roses-bonn.de</a><br /><a href="http://www.roses-bonn.de" target="_blank">Website</a><br />Martinsplatz 2a<br />53113 Bonn]]></description>
      <Point>
        <coordinates>7.1005255626606,50.7328806034296</coordinates>
      </Point>
    </Placemark>
    <Placemark id="235f153d-1564-4668-868d-c9bf1a282da0">
      <name>Riemberger Hof</name>
      <Point>
        <coordinates>7.22523714641893,50.7955804024244</coordinates>
      </Point>
    </Placemark>
    <Placemark id="6e22c6d8-1eea-4cb8-8643-eb2b78ec45d5">
      <name>Hafenschlösschen</name>
      <description><![CDATA[Telefon: +49 228 452347<br /><a href="http://www.hafenschloesschen.de" target="_blank">Website</a>]]></description>
      <Point>
        <coordinates>7.07288835395549,50.7721943056868</coordinates>
      </Point>
    </Placemark>
    <Placemark id="fbb5156e-e80e-4efd-a7f3-ddc3edc1ba49">
      <name>Rincón de España</name>
      <description><![CDATA[Karthäuserplatz 21<br />53129 Bonn]]></description>
      <Point>
        <coordinates>7.10640539552127,50.7124988938533</coordinates>
      </Point>
    </Placemark>
    <Placemark id="e8a9aa29-a214-4226-b5c7-ef7a9704f1ad">
      <name>Cassius Garten</name>
      <description><![CDATA[Telefon: +49228652429<br />Telefax: +49228657161<br /><a href="mailto:info@cassiusgarten.de">info@cassiusgarten.de</a><br /><a href="http://www.cassiusgarten.de" target="_blank">Website</a><br />Maximilianstraße 28d<br />53111 Bonn]]></description>
      <Point>
        <coordinates>7.09678102523027,50.7332260693552</coordinates>
      </Point>
    </Placemark>
    <Placemark id="90637faa-b643-421d-896e-97bc1060d6aa">
      <name>Amigo</name>
      <Point>
        <coordinates>7.1074830145361,50.7127052058857</coordinates>
      </Point>
    </Placemark>
    <Placemark id="9d67152f-0b23-421d-8b8a-9e6d0bc1611b">
      <name>Yansoon Orient-Küche</name>
      <Point>
        <coordinates>7.15487938656765,50.6859383812409</coordinates>
      </Point>
    </Placemark>
    <Placemark id="47e5300c-195b-4d77-b34c-eb8f55eb040b">
      <name>Sotavento</name>
      <description><![CDATA[Telefon: +49 2241 146622<br />Aggerbrücke 2<br />53721 Siegburg]]></description>
      <Point>
        <coordinates>7.18440188955954,50.8116929031731</coordinates>
      </Point>
    </Placemark>
    <Placemark id="6ac2845d-a95e-407c-b4a2-a3733d0008f3">
      <name>Thai Food</name>
      <Point>
        <coordinates>7.18728548162156,50.7772973774236</coordinates>
      </Point>
    </Placemark>
    <Placemark id="fe24cd86-deef-4e2b-8079-4a9ef8dc4b58">
      <name>plaza</name>
      <description><![CDATA[Telefon: +49 228 9212048<br /><a href="mailto:info@restaurant-plaza.de">info@restaurant-plaza.de</a><br /><a href="http://www.restaurant-plaza.de/" target="_blank">Website</a><br />Bonner Talweg 29<br />53113 Bonn]]></description>
      <Point>
        <coordinates>7.10120055676508,50.7264789021719</coordinates>
      </Point>
    </Placemark>
    <Placemark id="874769d9-8662-4cd6-af53-4cc23af37501">
      <name>Abacanto</name>
      <description><![CDATA[<a href="www.abacanto.de" target="_blank">Website</a><br />Rochusstraße 217<br />53123 Bonn]]></description>
      <Point>
        <coordinates>7.04740314934502,50.7143583997028</coordinates>
      </Point>
    </Placemark>
    <Placemark id="74cd5d34-33ed-4c63-8854-c40d3144e7d7">
      <name>Belvedere</name>
      <description><![CDATA[Rheinstraße 225<br />50389 Wesseling]]></description>
      <Point>
        <coordinates>7.02696798190155,50.8057299173909</coordinates>
      </Point>
    </Placemark>
    <Placemark id="16e7ec5b-bad1-4585-acc6-419a87fc4207">
      <name>Waldhäuschen</name>
      <description><![CDATA[Telefon: +49 228 281162<br />Telefax: +49 228 285543<br /><a href="mailto:info@restaurant-waldhaeuschen.de">info@restaurant-waldhaeuschen.de</a><br /><a href="http://www.waldhaeuschen.de/" target="_blank">Website</a><br />Kiefernweg 26<br />53127 Bonn]]></description>
      <Point>
        <coordinates>7.09897948967028,50.6994264923154</coordinates>
      </Point>
    </Placemark>
    <Placemark id="d72ca473-3a17-4e9f-a133-642248e797b5">
      <name><![CDATA[Life&Brain Casino]]></name>
      <Point>
        <coordinates>7.10368897993362,50.6962946763925</coordinates>
      </Point>
    </Placemark>
    <Placemark id="3306f3fd-d392-4d82-9bcc-af4388319973">
      <name>Viet Thai Bistro</name>
      <description><![CDATA[Telefon: +49 228 96297655<br />Endenicher Straße 315<br />53121 Bonn Endenich]]></description>
      <Point>
        <coordinates>7.07299327718068,50.7272814941137</coordinates>
      </Point>
    </Placemark>
    <Placemark id="122262be-cc81-4878-9509-6cb17150bb4a">
      <name>MEDI-TERRA - Junge deutsche Küche</name>
      <description><![CDATA[Telefon: +49 2242 9177 444<br /><a href="mailto:bilalvolkan@gmail.com">bilalvolkan@gmail.com</a><br /><a href="https://www.facebook.com/SowiesoHennef" target="_blank">Website</a>]]></description>
      <Point>
        <coordinates>7.28771506426097,50.7745510064905</coordinates>
      </Point>
    </Placemark>
    <Placemark id="fb669d81-6e22-4bb3-93c3-2e045133b5df">
      <name>Zur gemütlichen Ecke</name>
      <Point>
        <coordinates>7.15861997141072,50.7475803818211</coordinates>
      </Point>
    </Placemark>
    <Placemark id="5b0d1522-3a73-4533-9b05-82a280ade1fe">
      <name>Pizza Casa</name>
      <description><![CDATA[Telefon: +49 228 631010<br />Verdistraße 2<br />53115 Bonn]]></description>
      <Point>
        <coordinates>7.07842453661897,50.7302089180419</coordinates>
      </Point>
    </Placemark>
    <Placemark id="6cc2a7ec-f098-468d-a056-b7e3c250d2e0">
      <name><![CDATA[Henner's]]></name>
      <Point>
        <coordinates>7.08860464934575,50.721254781059</coordinates>
      </Point>
    </Placemark>
    <Placemark id="57a61ee2-1d70-44d1-8705-a325ab06e3e1">
      <name>Venusberg Bistro</name>
      <Point>
        <coordinates>7.10670830743508,50.7008370053528</coordinates>
      </Point>
    </Placemark>
    <Placemark id="bae3414f-1664-4084-b669-f8a1ce982747">
      <name>Bella Italia</name>
      <Point>
        <coordinates>7.12077529596369,50.7516842077824</coordinates>
      </Point>
    </Placemark>
    <Placemark id="6a1e7444-3aee-47d8-8072-a3de347d5562">
      <name>Zum Stern</name>
      <description><![CDATA[Rochusstraße 274<br />53123 Bonn]]></description>
      <Point>
        <coordinates>7.0442097283415,50.713760016711</coordinates>
      </Point>
    </Placemark>
    <Placemark id="a0c88349-d5b6-44a5-85c8-2fd7e865012c">
      <name>Gasthof Schneider</name>
      <description><![CDATA[Muffendorfer Hauptstraße 22<br />53177 Bonn]]></description>
      <Point>
        <coordinates>7.15888578290329,50.6728517123076</coordinates>
      </Point>
    </Placemark>
    <Placemark id="1ab8ea9f-4d1f-4586-9c68-c229180d9450">
      <name>Löwenburger Hof</name>
      <description><![CDATA[<a href="http://www.loewenburger-hof.de/" target="_blank">Website</a><br />Löwenburger Straße 30<br />53604 Königswinter]]></description>
      <Point>
        <coordinates>7.25180841263227,50.6656854248563</coordinates>
      </Point>
    </Placemark>
    <Placemark id="0e3ad3cd-61bf-41c8-945e-2d3f701ef854">
      <name>Adria</name>
      <description><![CDATA[Betreiber: E. Saracevic<br />Telefon: +49 2241 75583<br /><a href="mailto:info@adria-troisdorf.de">info@adria-troisdorf.de</a><br /><a href="http://www.adria-troisdorf.de" target="_blank">Website</a>]]></description>
      <Point>
        <coordinates>7.15233356105245,50.8141546608402</coordinates>
      </Point>
    </Placemark>
    <Placemark id="88938a08-a4c1-4acb-a271-040470f5dacb">
      <name>Karawane</name>
      <Point>
        <coordinates>7.16651355764381,50.7143157964515</coordinates>
      </Point>
    </Placemark>
    <Placemark id="3e63d70f-c7fd-4ca6-8bf3-2c81590de612">
      <name>La Piccola</name>
      <description>Telefon: +49228637816</description>
      <Point>
        <coordinates>7.10113866284201,50.7358188019138</coordinates>
      </Point>
    </Placemark>
    <Placemark id="f1138681-74ed-4b45-a9ee-5f9f882619be">
      <name>La Piazza</name>
      <description><![CDATA[Telefon: +49-228-1424600<br />Hermannstraße 54<br />53225 Bonn]]></description>
      <Point>
        <coordinates>7.11708274922868,50.7363647162501</coordinates>
      </Point>
    </Placemark>
    <Placemark id="45246668-d0cb-44dd-8d25-7cfdcf1e5c86">
      <name>zur Linde</name>
      <description><![CDATA[Vilicher Straße 7<br />53225 Bonn]]></description>
      <Point>
        <coordinates>7.11803662948128,50.7487912798736</coordinates>
      </Point>
    </Placemark>
    <Placemark id="2e1585ab-ffb0-4e24-8b70-21f1449a2982">
      <name>Am Ziepchen</name>
      <Point>
        <coordinates>7.21275514537761,50.6593721069052</coordinates>
      </Point>
    </Placemark>
    <Placemark id="271ba633-8b61-49a7-b2e5-30f3fd7cfac9">
      <name><![CDATA[L'Incontro]]></name>
      <description><![CDATA[Adenauerallee 12<br />53113 Bonn]]></description>
      <Point>
        <coordinates>7.1076638454028,50.7309093634111</coordinates>
      </Point>
    </Placemark>
    <Placemark id="8fae93f1-3bf6-456c-b213-ff8f818aa8fc">
      <name>Im Stiefel</name>
      <description><![CDATA[Bonngasse 30<br />53111 Bonn]]></description>
      <Point>
        <coordinates>7.10117558360019,50.7371612786044</coordinates>
      </Point>
    </Placemark>
    <Placemark id="409373bf-01e6-40bd-9d2e-262ade1e4542">
      <name>Kantine Post-Tower</name>
      <description><![CDATA[Charles-de-Gaulle-Straße 20<br />53113 Bonn]]></description>
      <Point>
        <coordinates>7.13022880668765,50.7159414612884</coordinates>
      </Point>
    </Placemark>
    <Placemark id="106db936-64d9-4df3-a893-a5ba51cd8cd3">
      <name>Ristorante Da Gigi</name>
      <Point>
        <coordinates>7.09678165405097,50.7036069892812</coordinates>
      </Point>
    </Placemark>
    <Placemark id="ddff5b5c-e594-49b1-aa82-e76a437eb82d">
      <name>Pizza Avanti</name>
      <Point>
        <coordinates>7.23337372693637,50.6975049108473</coordinates>
      </Point>
    </Placemark>
    <Placemark id="72b65e35-24cc-4fff-9539-b9167ef4e2c4">
      <name>Ristorante/Pizzeria Angelo Doria</name>
      <Point>
        <coordinates>6.95374367506537,50.7883357033161</coordinates>
      </Point>
    </Placemark>
    <Placemark id="a62750cb-5dbc-442e-835a-32b8d2c69029">
      <name>Zur Quelle</name>
      <description><![CDATA[Bahnhofstraße 33<br />Königswinter]]></description>
      <Point>
        <coordinates>7.19503124988527,50.6780621100025</coordinates>
      </Point>
    </Placemark>
    <Placemark id="3b40598b-ec68-4fdd-a1d7-e649a962bb83">
      <name>Kolibri</name>
      <Point>
        <coordinates>7.08164333471452,50.7316562712332</coordinates>
      </Point>
    </Placemark>
    <Placemark id="d9c35194-1799-4387-a2e0-4abedb9fbc4d">
      <name>Bürgerhof</name>
      <description><![CDATA[<a href="http://www.buergerhof-hangelar.de/" target="_blank">Website</a><br />Kölnstraße 67<br />53757 Sankt Augustin]]></description>
      <Point>
        <coordinates>7.17126998386658,50.7603621611653</coordinates>
      </Point>
    </Placemark>
    <Placemark id="296dca9d-1805-4e12-b6f2-8e3844cf3431">
      <name>Sudhaus</name>
      <description><![CDATA[Friedensplatz 10<br />53111 Bonn]]></description>
      <Point>
        <coordinates>7.09810262667627,50.7363535685524</coordinates>
      </Point>
    </Placemark>
    <Placemark id="d0d01c21-983d-49f1-9145-fce8e86617e6">
      <name>Bistro Möhren und Tulpen</name>
      <Point>
        <coordinates>7.00885392522066,50.7365821757318</coordinates>
      </Point>
    </Placemark>
    <Placemark id="7e80c301-528c-4401-911f-937c73f1c1ca">
      <name>Kleins Eck</name>
      <Point>
        <coordinates>7.28021826388888,50.7765020047275</coordinates>
      </Point>
    </Placemark>
    <Placemark id="dc3a9baa-b0ff-4e23-8774-9d18e1f1942b">
      <name>MIDI</name>
      <description><![CDATA[Telefon: +4922896963821<br /><a href="http://www.midi-bonn.de" target="_blank">Website</a><br />Münsterplatz 11<br />53111 Bonn]]></description>
      <Point>
        <coordinates>7.09933165426031,50.7345037260299</coordinates>
      </Point>
    </Placemark>
    <Placemark id="62ea2f82-f6e8-4b3a-b03e-22717f5df55f">
      <name>Scheerenstube</name>
      <description><![CDATA[Scheerengasse 4<br />53721 Siegburg]]></description>
      <Point>
        <coordinates>7.20975926390508,50.798415361345</coordinates>
      </Point>
    </Placemark>
    <Placemark id="6dfc65bc-4f98-4a2e-bcee-6e38e673311a">
      <name>China-Restaurant Nan Guo</name>
      <Point>
        <coordinates>6.96014748840498,50.7634593644745</coordinates>
      </Point>
    </Placemark>
    <Placemark id="3838277d-316b-4bf0-85cb-3de894f9ff42">
      <name>Halbedels Gasthaus</name>
      <description><![CDATA[<a href="www.halbedels-gasthaus.de" target="_blank">Website</a><br />Rheinallee 47<br />53173 Bonn]]></description>
      <Point>
        <coordinates>7.16620058459882,50.6890908905492</coordinates>
      </Point>
    </Placemark>
    <Placemark id="a7b629b1-65c9-4bca-8704-453ed66e27eb">
      <name><![CDATA[Matthieu's]]></name>
      <Point>
        <coordinates>7.09921330369356,50.7237389883092</coordinates>
      </Point>
    </Placemark>
    <Placemark id="c02e022a-5a01-451e-862d-c5f93c2319e2">
      <name>Tongking</name>
      <description><![CDATA[Betreiber: Tran Van Hai<br />Telefon: +49 228 18499684<br />Endenicher Straße 51a<br />53115 Bonn]]></description>
      <Point>
        <coordinates>7.08719950457832,50.7337287984627</coordinates>
      </Point>
    </Placemark>
    <Placemark id="472bdc74-1f11-492f-b047-260625448356">
      <name>Lo Scoglio Im Himmelreich</name>
      <Point>
        <coordinates>7.1660202927213,50.7131583838288</coordinates>
      </Point>
    </Placemark>
    <Placemark id="3e67b042-42af-4f61-b292-97405b12d5d6">
      <name>Havanna</name>
      <description><![CDATA[<a href="http://www.havanna-bonn.de/" target="_blank">Website</a><br />Clemens-August-Straße 1<br />53115 Bonn]]></description>
      <Point>
        <coordinates>7.09019017582222,50.7240088866914</coordinates>
      </Point>
    </Placemark>
    <Placemark id="e800c1eb-2bc3-4ac0-9ba8-f6dac41147cb">
      <name>Zur Krone</name>
      <description><![CDATA[Hauptstraße 110<br />53639 Königswinter]]></description>
      <Point>
        <coordinates>7.17885200790272,50.6938572699116</coordinates>
      </Point>
    </Placemark>
    <Placemark id="009b1a52-465b-4ff1-9b0f-5c327d3373ac">
      <name>Asia Haus 36</name>
      <description><![CDATA[<a href="https://pizza.de/asia-haus-36-bonn-franzstr-36" target="_blank">Website</a><br />Franzstraße 36<br />53111 Bonn]]></description>
      <Point>
        <coordinates>7.09264850542874,50.7372036905302</coordinates>
      </Point>
    </Placemark>
    <Placemark id="8be18910-ffde-4e3e-8e05-5e360a852f9e">
      <name>Lambertushof</name>
      <description><![CDATA[Telefon: 0228 645014<br /><a href="http://www.lambertushof.de" target="_blank">Website</a><br />Hauptstraße 238<br />53347 Alfter]]></description>
      <Point>
        <coordinates>7.02293977837023,50.6918249767536</coordinates>
      </Point>
    </Placemark>
    <Placemark id="72d545cc-c10c-40a3-836c-01df4eddfff4">
      <name>Mangold</name>
      <Point>
        <coordinates>7.16128931527748,50.8140469889717</coordinates>
      </Point>
    </Placemark>
    <Placemark id="04c5c7e8-836b-4827-b344-8b70010e4af7">
      <name>Milchhäuschen</name>
      <description><![CDATA[Telefon: +49 2223 909000<br />Telefax: +49 228 40399312<br /><a href="http://www.milchhaeuschen.de/" target="_blank">Website</a><br />Elsigerfeld 1<br />53639 Königswinter]]></description>
      <Point>
        <coordinates>7.2230834811278,50.6721140645638</coordinates>
      </Point>
    </Placemark>
    <Placemark id="2f53787e-2965-462f-9095-971b57704e80">
      <name>Bergischer Hof</name>
      <Point>
        <coordinates>7.19240821383465,50.660185073803</coordinates>
      </Point>
    </Placemark>
    <Placemark id="cdf021e9-66a6-4f34-a0c6-44cfdb7181a9">
      <name>Leonardo da Vinci</name>
      <description><![CDATA[Telefon: +49 2236 4904467<br />Telefax: 02236 4904466]]></description>
      <Point>
        <coordinates>6.97636572414977,50.8189461765998</coordinates>
      </Point>
    </Placemark>
    <Placemark id="7d51b2dd-9999-4d72-bbf3-1b8a29cd9684">
      <name>Hotel Augustiner Hof</name>
      <description><![CDATA[Telefon: +49 2241 9288-0<br />Telefax: +49 2241 21304<br /><a href="mailto:hotel@augustinerhof.de">hotel@augustinerhof.de</a><br /><a href="www.augustinerhof.de" target="_blank">Website</a><br />Uhlandstraße 8<br />53757 Sankt Augustin]]></description>
      <Point>
        <coordinates>7.1845302618345,50.7712635789915</coordinates>
      </Point>
    </Placemark>
    <Placemark id="2f746507-2d39-4800-a670-a6b2136f716e">
      <name>Klosterstube</name>
      <description><![CDATA[<a href="http://www.klosterstube-heisterbach.de/" target="_blank">Website</a>]]></description>
      <Point>
        <coordinates>7.21177517323417,50.6953158937202</coordinates>
      </Point>
    </Placemark>
    <Placemark id="30a7b47c-6e1f-4f9e-9602-6dad94feb158">
      <name>La Fermata</name>
      <description><![CDATA[Telefon: +49 228 422854 18<br />Telefax: +49 228 422854 21<br /><a href="mailto:la-fermata@hotmail.com">la-fermata@hotmail.com</a><br />Bonner Talweg 19<br />53113 Bonn]]></description>
      <Point>
        <coordinates>7.10013497517506,50.7274964981648</coordinates>
      </Point>
    </Placemark>
    <Placemark id="cf7f20be-ea38-4803-9f87-241f0ca9ffed">
      <name>Die Glocke</name>
      <description><![CDATA[<a href="http://www.dieglocke.de/" target="_blank">Website</a><br />Kölnstraße 170<br />53757 Sankt Augustin]]></description>
      <Point>
        <coordinates>7.16213040489588,50.7566057897693</coordinates>
      </Point>
    </Placemark>
    <Placemark id="c30d1f12-38e2-447d-be2c-9e5b6e8facac">
      <name>Da-Tung‎</name>
      <Point>
        <coordinates>7.15289644540948,50.6835422710238</coordinates>
      </Point>
    </Placemark>
    <Placemark id="5b38ac44-bfa5-4acb-a45c-7eebc5fb0ae4">
      <name>Cheers</name>
      <Point>
        <coordinates>7.18732150406445,50.7771365089623</coordinates>
      </Point>
    </Placemark>
    <Placemark id="d7aa0ad5-e26a-4d2f-8587-f779fe336280">
      <name>Da Franco</name>
      <description><![CDATA[Sternenburgstraße 12<br />53115 Bonn]]></description>
      <Point>
        <coordinates>7.08939840073079,50.7216887107324</coordinates>
      </Point>
    </Placemark>
    <Placemark id="8d3f6589-0846-4fb6-a304-cdffa7c3b9c4">
      <name>Kappellchen</name>
      <Point>
        <coordinates>7.20241897396721,50.7971850234441</coordinates>
      </Point>
    </Placemark>
    <Placemark id="f27eb422-81c8-4e1b-9b46-3549895fc952">
      <name><![CDATA[Sonja's]]></name>
      <description><![CDATA[Friedrichstraße 13<br />53111 Bonn]]></description>
      <Point>
        <coordinates>7.09922650892823,50.7367008850133</coordinates>
      </Point>
    </Placemark>
    <Placemark id="460a5484-72f7-48fa-9649-36bb6291573c">
      <name>Sa Finca</name>
      <description><![CDATA[Betreiber: Robert Buljat<br />Telefon: +492284336852<br />Telefax: +492284336853<br /><a href="mailto:info@safinca.de">info@safinca.de</a><br /><a href="http://www.safinca.de" target="_blank">Website</a><br />Obere Wilhelmstraße 22<br />53225 Bonn]]></description>
      <Point>
        <coordinates>7.1247392019864,50.7397964871546</coordinates>
      </Point>
    </Placemark>
    <Placemark id="ded2e35a-abfc-44c5-9e9a-301fe6bed64e">
      <name>MARE NOSTRUM</name>
      <description><![CDATA[Telefon: 02241/9057100<br /><a href="www.marenostrum.de" target="_blank">Website</a><br />Hans-Böckler-Straße 22<br />53842 Troisdorf]]></description>
      <Point>
        <coordinates>7.15055803489257,50.8101698163073</coordinates>
      </Point>
    </Placemark>
    <Placemark id="f74ccb49-6bbc-4dc3-8f77-cdd6ab52b0e5">
      <name>Ginyuu</name>
      <description><![CDATA[<a href="ginyuu.de" target="_blank">Website</a><br />Ollenhauerstraße 1<br />53113 Bonn]]></description>
      <Point>
        <coordinates>7.12722555902978,50.7100717156367</coordinates>
      </Point>
    </Placemark>
    <Placemark id="d03b35f0-6efe-46a8-8f62-818ea361ea26">
      <name>Zur alten Post</name>
      <Point>
        <coordinates>7.16537422436896,50.6971932652311</coordinates>
      </Point>
    </Placemark>
    <Placemark id="cc266813-49b2-4787-bc7e-824e1ff55316">
      <name>Peperoni</name>
      <Point>
        <coordinates>7.20678700812451,50.7981134145211</coordinates>
      </Point>
    </Placemark>
    <Placemark id="f9f1c7fb-285f-4090-9e17-54dc4d8d5ad1">
      <name>Volksbankhaus-Kantine</name>
      <description><![CDATA[<a href="http://www.bernd-knecht.de" target="_blank">Website</a>]]></description>
      <Point>
        <coordinates>7.14314199906534,50.70642761218</coordinates>
      </Point>
    </Placemark>
    <Placemark id="8e8e6726-2a9b-46f8-9699-69bc4466ad1f">
      <name>Langhorst</name>
      <description><![CDATA[Roncallistraße 8<br />53840 Troisdorf]]></description>
      <Point>
        <coordinates>7.15809842664466,50.802238179343</coordinates>
      </Point>
    </Placemark>
    <Placemark id="093f1c9f-0883-4e4e-a3bf-d9a060c04990">
      <name>Kaiserhüttn</name>
      <Point>
        <coordinates>7.09873261518502,50.7402905615907</coordinates>
      </Point>
    </Placemark>
    <Placemark id="279b28aa-4f38-4736-bb09-7a60426fc7af">
      <name>Weihers Eck</name>
      <Point>
        <coordinates>7.0942415777536,50.7380813131416</coordinates>
      </Point>
    </Placemark>
    <Placemark id="76662169-d32e-40ea-a3de-de1b6a916e45">
      <name>Beim Mahler</name>
      <Point>
        <coordinates>7.0806811492137,50.7013496974193</coordinates>
      </Point>
    </Placemark>
    <Placemark id="3d7c6c49-81fc-442d-9982-411f991e5034">
      <name>Zum Gequetschten</name>
      <description><![CDATA[Kasernenstraße 78<br />53111 Bonn]]></description>
      <Point>
        <coordinates>7.09841335393305,50.735896805678</coordinates>
      </Point>
    </Placemark>
    <Placemark id="9b7189a6-5aa5-42f8-9967-2b9f19086200">
      <name>PiazzaSan Paulo</name>
      <description><![CDATA[<a href="http://www.piazza-san-paolo.de" target="_blank">Website</a><br />Lengsdorfer Hauptstraße 14<br />53127 Bonn]]></description>
      <Point>
        <coordinates>7.06916286080919,50.7110135000521</coordinates>
      </Point>
    </Placemark>
    <Placemark id="d73769f4-7204-4424-b13b-b6e83bb693fa">
      <name>Mayflower</name>
      <description><![CDATA[Rheinallee 15<br />53639 Königswinter]]></description>
      <Point>
        <coordinates>7.19103675641651,50.6750358002681</coordinates>
      </Point>
    </Placemark>
    <Placemark id="e7c59383-ac4a-4216-aba9-faab2448d53e">
      <name>Maternus</name>
      <Point>
        <coordinates>7.15799510329909,50.6836575858124</coordinates>
      </Point>
    </Placemark>
    <Placemark id="8e38e7df-947f-4856-bdc0-e494c2d0d347">
      <name>Zum Dorfkrug</name>
      <description><![CDATA[Betreiber: Dienstknecht<br />Telefon: +49 2226 4899<br />Telefax: +49 2226 912109<br />Frankenstraße 1<br />53359 Oberdrees]]></description>
      <Point>
        <coordinates>6.91868125557603,50.6384789827481</coordinates>
      </Point>
    </Placemark>
    <Placemark id="1856fd17-c0b9-4a74-a3e3-1629b2791dad">
      <name>Dionysos</name>
      <description><![CDATA[Telefon: +49 2241 330526<br />Bonner Straße 60<br />53757 Sankt Augustin]]></description>
      <Point>
        <coordinates>7.19691272652147,50.784881197467</coordinates>
      </Point>
    </Placemark>
    <Placemark id="4f9717b9-b493-4c11-8f92-f7edbd7b40df">
      <name>Italia</name>
      <description><![CDATA[Hauptstraße 352<br />53639 Königswinter]]></description>
      <Point>
        <coordinates>7.19237120377107,50.6759617796198</coordinates>
      </Point>
    </Placemark>
    <Placemark id="849c0125-bf95-445b-85c0-bae7a8949736">
      <name>Jonny Grill</name>
      <description><![CDATA[Telefon: 0228-60887096<br />Siegstraße 4<br />53844 Troisdorf]]></description>
      <Point>
        <coordinates>7.09254747835655,50.7738560308273</coordinates>
      </Point>
    </Placemark>
    <Placemark id="56b40bb9-4142-4af4-a6f5-c1df62bc2a92">
      <name>Zum letzten Groschen</name>
      <Point>
        <coordinates>6.98481680484818,50.763885967013</coordinates>
      </Point>
    </Placemark>
    <Placemark id="73fe0728-3588-4151-99c8-ad8c54ffbb93">
      <name>Rendezvous</name>
      <description><![CDATA[Telefon: +49 228 4100046<br /><a href="http://www.rendezvous-bonn.de/" target="_blank">Website</a><br />Rosenstraße 34<br />53111 Bonn]]></description>
      <Point>
        <coordinates>7.10397680015066,50.742611408061</coordinates>
      </Point>
    </Placemark>
    <Placemark id="e27e011e-e3c8-4e5a-8425-aacce7c5f861">
      <name>Pasta Casa</name>
      <description><![CDATA[Rochusstraße 146<br />53123 Bonn]]></description>
      <Point>
        <coordinates>7.05135814383324,50.7166937429697</coordinates>
      </Point>
    </Placemark>
    <Placemark id="cfb80fb8-6258-4954-a5d6-c39b62a7f9f5">
      <name>StadtBierhaus Troisdorf</name>
      <description><![CDATA[Telefon: +49 2241 800555<br />Telefax: +49 2241 800552<br /><a href="mailto:info@stadtbierhaus.de">info@stadtbierhaus.de</a><br /><a href="http://www.stadtbierhaus.de/" target="_blank">Website</a><br />Hippolytusstraße 24<br />53840 Troisdorf]]></description>
      <Point>
        <coordinates>7.15779892801063,50.8138656905676</coordinates>
      </Point>
    </Placemark>
    <Placemark id="803f079f-04ef-4138-b569-5678b89e47d0">
      <name>Taverne Sirtaki</name>
      <description><![CDATA[Betreiber: Familie Tsapanidis<br />Telefon: +49-2241-66950<br />Telefax: +49-2241-66904<br /><a href="mailto:info@sirtaki-siegburg.de">info@sirtaki-siegburg.de</a><br /><a href="http://www.sirtaki-siegburg.de/" target="_blank">Website</a><br />Holzgasse 43<br />53721 Siegburg]]></description>
      <Point>
        <coordinates>7.21092437882858,50.7983529621895</coordinates>
      </Point>
    </Placemark>
    <Placemark id="4309e779-6857-44b2-83a5-f6a91a2d982d">
      <name>Da Ernesto</name>
      <description>Telefon: +49 2226 14822</description>
      <Point>
        <coordinates>6.97819568221505,50.6821419648805</coordinates>
      </Point>
    </Placemark>
    <Placemark id="e8f9bedc-2eec-4eb5-9b20-7b8a1ba4b53e">
      <name>Siesta</name>
      <Point>
        <coordinates>6.99518462086832,50.7610326624336</coordinates>
      </Point>
    </Placemark>
    <Placemark id="7e4720d8-24a2-431b-b7e5-90a8f3a4c024">
      <name>Sieglinde</name>
      <description><![CDATA[<a href="http://www.sieglinde-hennef.de/" target="_blank">Website</a><br />Brückenweg 1<br />Siegburg]]></description>
      <Point>
        <coordinates>7.28297245363552,50.7885117884979</coordinates>
      </Point>
    </Placemark>
    <Placemark id="9a6519ae-431d-450d-911e-3b30c6a0d551">
      <name>Conviva</name>
      <description><![CDATA[Telefon: +49 2241 2013455<br />Telefax: +49 2241 2013437<br /><a href="mailto:info@pizza-conviva.de">info@pizza-conviva.de</a><br /><a href="http://www.pizza-conviva.de" target="_blank">Website</a><br />Bonner Straße 51<br />53757 Sankt Augustin]]></description>
      <Point>
        <coordinates>7.19620250810336,50.7846983698499</coordinates>
      </Point>
    </Placemark>
    <Placemark id="b4e10691-2639-47c4-aabd-cb1ae039c03b">
      <name>Derwisch</name>
      <Point>
        <coordinates>7.10464541621663,50.737306309039</coordinates>
      </Point>
    </Placemark>
    <Placemark id="81aff27b-03d4-4be2-8015-0cd4bc125b00">
      <name>Weinhaus Lichtenberg</name>
      <description><![CDATA[Heisterbacher Straße 131<br />53639 Königswinter]]></description>
      <Point>
        <coordinates>7.18890217963839,50.698499579671</coordinates>
      </Point>
    </Placemark>
    <Placemark id="66403ebe-eda7-4a14-a889-ec28cec4af4a">
      <name>Forissimo</name>
      <description><![CDATA[Kurt-Schumacher-Straße 18<br />53113 Bonn]]></description>
      <Point>
        <coordinates>7.12752802934656,50.7162398254485</coordinates>
      </Point>
    </Placemark>
    <Placemark id="6eddf0db-6652-4b39-b887-5da9281fe813">
      <name>Alt Duisdorf</name>
      <description><![CDATA[Rochusstraße 241<br />53123 Bonn]]></description>
      <Point>
        <coordinates>7.0454971938067,50.7136224785521</coordinates>
      </Point>
    </Placemark>
    <Placemark id="85b784d2-11ea-48ee-a241-7a333ec5deef">
      <name><![CDATA[Beueler Pizzeria \"Da Mario\"]]></name>
      <Point>
        <coordinates>7.1338305119878,50.7423553736211</coordinates>
      </Point>
    </Placemark>
    <Placemark id="c7094828-90a9-4254-b522-c554d655bd08">
      <name>Pizzeria Il Trio</name>
      <description>Telefon: 02241/71956</description>
      <Point>
        <coordinates>7.16276372015331,50.8144767668196</coordinates>
      </Point>
    </Placemark>
    <Placemark id="1fb64eba-1343-4f93-b9c3-f9e82f050e08">
      <name>Gaststätte Höllen</name>
      <Point>
        <coordinates>7.15963758296457,50.6373291884066</coordinates>
      </Point>
    </Placemark>
    <Placemark id="081c6964-857c-4682-bd2a-fb5ca0a5a934">
      <name>Jägerhof</name>
      <description><![CDATA[Euskirchener Straße 130<br />50321 Brühl]]></description>
      <Point>
        <coordinates>6.88708406881339,50.8130658196089</coordinates>
      </Point>
    </Placemark>
    <Placemark id="18f455a1-5cd5-4c62-833d-98c4c4b9bb12">
      <name>Da Isa</name>
      <Point>
        <coordinates>7.20701949212004,50.80011980833</coordinates>
      </Point>
    </Placemark>
    <Placemark id="e6560571-7b1d-4667-a53a-1f89c8e4610b">
      <name>Vapiano</name>
      <description><![CDATA[<a href="mailto:bonn2@vapiano.de">bonn2@vapiano.de</a><br />In der Sürst 1<br />53111 Bonn]]></description>
      <Point>
        <coordinates>7.09870261145453,50.7333611619866</coordinates>
      </Point>
    </Placemark>
    <Placemark id="72bc1ce8-4112-4396-9e5e-cf7dc2580825">
      <name>La Taverna Latina</name>
      <Point>
        <coordinates>7.15585998753179,50.6814394624151</coordinates>
      </Point>
    </Placemark>
    <Placemark id="b55b5593-82fa-4d7b-ae72-3b71402f6a15">
      <name>Il Borgo</name>
      <Point>
        <coordinates>7.15955323115939,50.7150596129401</coordinates>
      </Point>
    </Placemark>
    <Placemark id="e255b80d-2fc7-4b65-87ee-2f50d7c6afbe">
      <name>Altes Standesamt</name>
      <Point>
        <coordinates>7.2272953663979,50.6453450854903</coordinates>
      </Point>
    </Placemark>
    <Placemark id="852e929a-2179-4429-874c-59e251030256">
      <name>El Loco, Argentinischen Steakhaus</name>
      <description><![CDATA[Telefon: +49 2222 977417<br />Telefax: 02222/92 99 94 0]]></description>
      <Point>
        <coordinates>6.99686799389444,50.7662123746725</coordinates>
      </Point>
    </Placemark>
    <Placemark id="dab290b7-f7ae-4b64-b0c4-5bda7cb4defd">
      <name>Royal Dragon</name>
      <description><![CDATA[<a href="http://www.royaldragon.eu/" target="_blank">Website</a><br />Provinzialstraße 35<br />53127 Bonn]]></description>
      <Point>
        <coordinates>7.06823211634331,50.7092563708067</coordinates>
      </Point>
    </Placemark>
    <Placemark id="25c0b1af-e0b4-44b5-9e6e-0805b994e7ad">
      <name>Dolomiti Pizzeria und Eis-Café</name>
      <Point>
        <coordinates>7.04605792220705,50.7502833784761</coordinates>
      </Point>
    </Placemark>
    <Placemark id="528ff730-d15c-412e-aee6-6aa4e2e1256e">
      <name>Cafe Miebach</name>
      <description><![CDATA[Betreiber: Richard Grunwald MIEBACHS Bistro & Restaurant<br />Telefon: +49228692500<br /><a href="http://www.miebachs.com" target="_blank">Website</a><br />Markt 8<br />53111 Bonn]]></description>
      <Point>
        <coordinates>7.10278635273614,50.7353305931881</coordinates>
      </Point>
    </Placemark>
    <Placemark id="c79bd307-d88c-4493-9415-a8ff89e6a88f">
      <name>Elbe am Rhein</name>
      <Point>
        <coordinates>7.10494338739637,50.7428902930048</coordinates>
      </Point>
    </Placemark>
    <Placemark id="0b4bfaf8-0beb-4087-8386-e8d87ad0cd02">
      <name>Redüttchen</name>
      <description><![CDATA[Am Kurpark 8<br />53177 Bonn]]></description>
      <Point>
        <coordinates>7.1525018333996,50.6816905881211</coordinates>
      </Point>
    </Placemark>
    <Placemark id="1f7f32a0-db8d-4872-b9db-cd4fdb1f75fe">
      <name>Restaurant Mediterran</name>
      <description><![CDATA[Lannesdorfer Straße 1<br />]]></description>
      <Point>
        <coordinates>7.17114814585764,50.6643325989187</coordinates>
      </Point>
    </Placemark>
    <Placemark id="571e1144-c998-42ef-9ea5-31e349b2dfe0">
      <name>Sövener Hof</name>
      <description><![CDATA[Telefon: +49 2242 80836<br /><a href="http://www.soevener-hof.de/" target="_blank">Website</a><br />Zinnestraße 9<br />53773 Hennef (Sieg)]]></description>
      <Point>
        <coordinates>7.27886951905719,50.7486654412923</coordinates>
      </Point>
    </Placemark>
    <Placemark id="0afa7ddd-b385-4c05-9c72-58a746f85d7f">
      <name>Chinesische Mauer</name>
      <description><![CDATA[Telefon: +49 0228 461290<br /><a href="chinesische-mauer-bonn.wv.to" target="_blank">Website</a><br />Hermannstraße 2<br />53225 Bonn]]></description>
      <Point>
        <coordinates>7.11575012026433,50.7387881975719</coordinates>
      </Point>
    </Placemark>
    <Placemark id="01a0736f-e4df-4ec0-8e5c-0b5a3778eb8e">
      <name><![CDATA[L'Osteria]]></name>
      <description><![CDATA[Betreiber: L'Osteria<br />Telefon: +49 2222 9272733<br /><a href="http://www.losteria.de/?uri=bornheim" target="_blank">Website</a><br />Carl-Benz-Straße 11<br />53332 Bornheim]]></description>
      <Point>
        <coordinates>7.02929689027996,50.7625373051761</coordinates>
      </Point>
    </Placemark>
    <Placemark id="98b51974-ba09-4fa1-9a4a-6f7830f6f3ca">
      <name>Mexx</name>
      <description><![CDATA[Sternenburgstraße 18/20<br />53115 Bonn]]></description>
      <Point>
        <coordinates>7.08974719420586,50.7215445318908</coordinates>
      </Point>
    </Placemark>
    <Placemark id="d7a7b089-4a05-4bba-915c-1c106fa13e83">
      <name>Alt Eckdorf</name>
      <description><![CDATA[Telefon: +49 2232 569434<br />Eckdorfer Straße 62<br />50321 Brühl]]></description>
      <Point>
        <coordinates>6.89531846157511,50.8031982158849</coordinates>
      </Point>
    </Placemark>
    <Placemark id="8a505d89-835c-4430-8401-96a38017881b">
      <name>DelikArt Restaurant</name>
      <description><![CDATA[Telefon: 0228 - 18 414 38<br /><a href="mailto:info@delikart-restaurant.de">info@delikart-restaurant.de</a><br /><a href="http://delikart-restaurant.de/" target="_blank">Website</a>]]></description>
      <Point>
        <coordinates>7.09256792654775,50.7318676730966</coordinates>
      </Point>
    </Placemark>
    <Placemark id="dd791f0e-65fa-4b61-8450-3303bb2d3266">
      <name>Garten Eden</name>
      <description><![CDATA[Friedrichstraße 9<br />53111 Bonn]]></description>
      <Point>
        <coordinates>7.09903750339245,50.7367090718492</coordinates>
      </Point>
    </Placemark>
    <Placemark id="3e47c14b-1c0b-4aee-adc6-9106f042f3ba">
      <name>Zum Treppchen</name>
      <Point>
        <coordinates>7.151623891978,50.7434773898384</coordinates>
      </Point>
    </Placemark>
    <Placemark id="cafa25e4-4343-4e02-8f1e-59dedde701f1">
      <name>Wokboy</name>
      <description><![CDATA[<a href="http://www.wokboybonn.de/" target="_blank">Website</a><br />Sebastianstraße 69<br />53115 Bonn]]></description>
      <Point>
        <coordinates>7.08374620096311,50.7224532816272</coordinates>
      </Point>
    </Placemark>
    <Placemark id="2d1b44a8-2b2b-4f3b-9f6b-939b368fe332">
      <name><![CDATA[Café Bar Ristorante \"Dante\"]]></name>
      <description><![CDATA[Telefon: +49 228 652950<br /><a href="http://www.dante-cafe.de/" target="_blank">Website</a><br />Hermannstraße 2<br />53225 Bonn]]></description>
      <Point>
        <coordinates>7.11583177712365,50.7384826819977</coordinates>
      </Point>
    </Placemark>
    <Placemark id="7497f6a3-be40-486f-bbb2-81a5d9fd9b52">
      <name>Sandberg</name>
      <Point>
        <coordinates>7.15510881629121,50.7835996682275</coordinates>
      </Point>
    </Placemark>
    <Placemark id="3438df4f-4cbb-4041-bbd6-339bac13ea07">
      <name>Viet Nam</name>
      <description><![CDATA[Obere Wilhelmstraße 31<br />53225 Bonn]]></description>
      <Point>
        <coordinates>7.12571513171106,50.7400596985547</coordinates>
      </Point>
    </Placemark>
    <Placemark id="e959c562-bf50-4f1a-9fd1-0014ca688e5e">
      <name>Tao</name>
      <description><![CDATA[Betreiber: Ka-Chu Leung<br /><a href="http://www.taobonn.com" target="_blank">Website</a><br />Mildred-Scheel-Straße 1<br />53175 Bonn]]></description>
      <Point>
        <coordinates>7.14476992602322,50.7063050714487</coordinates>
      </Point>
    </Placemark>
    <Placemark id="b1db9403-2fc8-4b73-b112-bffe2655e56e">
      <name><![CDATA[Meyer's Speis & Trank]]></name>
      <description><![CDATA[Telefon: +49 228 214937<br /><a href="http://www.meyers-bonn.com/" target="_blank">Website</a>]]></description>
      <Point>
        <coordinates>7.0889181613799,50.7223894730785</coordinates>
      </Point>
    </Placemark>
    <Placemark id="3410c830-64c9-43aa-803f-a44db4222418">
      <name>PENDEL</name>
      <Point>
        <coordinates>7.09810235718168,50.7364335612934</coordinates>
      </Point>
    </Placemark>
    <Placemark id="fa916c4f-87a7-4b2d-a836-01b2e8a83b9a">
      <name>Haus Dürresbach</name>
      <Point>
        <coordinates>7.2744778495603,50.7527959977546</coordinates>
      </Point>
    </Placemark>
    <Placemark id="f790bcfc-6372-486e-a9f5-fb920636af07">
      <name>Im Treppchen</name>
      <description><![CDATA[Hofgartenstraße 1<br />53840 Troisdorf]]></description>
      <Point>
        <coordinates>7.16233322575219,50.8124781590318</coordinates>
      </Point>
    </Placemark>
    <Placemark id="31717e23-06da-4ef9-b7be-e9fc119e9e5a">
      <name>Tongking</name>
      <description><![CDATA[Bonner Talweg 103<br />53113 Bonn]]></description>
      <Point>
        <coordinates>7.10425599654096,50.7223881081888</coordinates>
      </Point>
    </Placemark>
    <Placemark id="2e39d9df-ab19-416b-b85b-beeff1a89b09">
      <name>Makiman</name>
      <description><![CDATA[Telefon: +492287216957<br /><a href="mailto:info@makiman.net">info@makiman.net</a><br /><a href="http://www.makiman.net" target="_blank">Website</a><br />Goetheallee 66<br />53225 Bonn]]></description>
      <Point>
        <coordinates>7.12008853392898,50.7373393970643</coordinates>
      </Point>
    </Placemark>
    <Placemark id="8fab2e19-b833-4337-b60a-0e753a3d5c44">
      <name>Zur grünen Gans</name>
      <Point>
        <coordinates>7.18024781019118,50.6437276828586</coordinates>
      </Point>
    </Placemark>
    <Placemark id="33824b69-560c-40a5-859b-b2f6fe90dd86">
      <name><![CDATA[Sportparkrestaurant \"Da Giuseppe\"]]></name>
      <Point>
        <coordinates>7.13011436132045,50.6266391036813</coordinates>
      </Point>
    </Placemark>
    <Placemark id="74aaf61e-5aad-4d8b-9261-1c8ff50c7f16">
      <name><![CDATA[Cartoon Toon's Diner]]></name>
      <description><![CDATA[<a href="http://www.cafe-bistro-cartoon.de/" target="_blank">Website</a><br />Kasernenstraße 16<br />53111 Bonn]]></description>
      <Point>
        <coordinates>7.09839188419776,50.736504571082</coordinates>
      </Point>
    </Placemark>
    <Placemark id="f6a7d72c-32da-4cce-9058-ca6f247ac246">
      <name><![CDATA[Bottler Cafe & Brasserie]]></name>
      <description><![CDATA[Telefon: +4922890902999<br />Telefax: +4922890902997<br /><a href="mailto:info@bottler-bonn.de">info@bottler-bonn.de</a><br /><a href="http://www.bottler-bonn.de" target="_blank">Website</a><br />Vivatsgasse 8<br />53111 Bonn]]></description>
      <Point>
        <coordinates>7.09858879490804,50.7352869856163</coordinates>
      </Point>
    </Placemark>
    <Placemark id="c331a8a8-87f1-4f52-8274-f0602411a562">
      <name>Restaurant Hauraman</name>
      <description><![CDATA[Telefon: +492283682613<br />Telefax: +492283682614<br />Moltkestraße 38<br />53173 Bonn (Bad Godesberg)]]></description>
      <Point>
        <coordinates>7.15647012327277,50.6850991105908</coordinates>
      </Point>
    </Placemark>
    <Placemark id="df1c6a0a-15c8-4576-ad25-2fff0273d95d">
      <name><![CDATA[Bistro L'unico]]></name>
      <description><![CDATA[Römerplatz 10<br />53173 Bonn]]></description>
      <Point>
        <coordinates>7.16899757906745,50.6847641608025</coordinates>
      </Point>
    </Placemark>
    <Placemark id="2ba41cb7-3d83-4899-9eb0-ffdb6855897d">
      <name>Caesareo</name>
      <Point>
        <coordinates>7.21310018827825,50.6577477838093</coordinates>
      </Point>
    </Placemark>
    <Placemark id="4f62565b-67ba-431e-9baa-4904b849d9fb">
      <name>Ratsstuben Hennef</name>
      <description><![CDATA[Betreiber: Petra Wingen<br />Telefon: +49 2242 2638<br /><a href="mailto:info@ratsstuben-hennef.de">info@ratsstuben-hennef.de</a><br /><a href="http://www.ratsstuben-hennef.de" target="_blank">Website</a><br />Frankfurter Straße 103<br />53773 Hennef (Sieg)]]></description>
      <Point>
        <coordinates>7.283214414856,50.7756347024715</coordinates>
      </Point>
    </Placemark>
    <Placemark id="fe8f04e7-00cc-46e5-80e1-373b411f4fe8">
      <name>Alte Liebe</name>
      <Point>
        <coordinates>7.19089078018284,50.6740648856635</coordinates>
      </Point>
    </Placemark>
    <Placemark id="36263d9b-316a-4ba7-b21f-aba87bf46640">
      <name>Casbah</name>
      <Point>
        <coordinates>7.20754195228928,50.7967302142205</coordinates>
      </Point>
    </Placemark>
    <Placemark id="27e916c1-be80-406d-8af5-6f673d79bc2e">
      <name>Bellevuechen</name>
      <description><![CDATA[Bonner Straße 68<br />53424 Remagen]]></description>
      <Point>
        <coordinates>7.20851482774199,50.631245384325</coordinates>
      </Point>
    </Placemark>
    <Placemark id="0cab6f2a-8a4b-4e22-bada-463452ef558d">
      <name>Beim Pompe Jupp</name>
      <description><![CDATA[Telefon: +49 2241 42731<br />Telefax: +49 2241 395143<br /><a href="mailto:pompejupp@gmx.de">pompejupp@gmx.de</a><br />Marktplatz 1<br />53844 Troisdorf]]></description>
      <Point>
        <coordinates>7.12700021296791,50.7984389299586</coordinates>
      </Point>
    </Placemark>
    <Placemark id="c6c24721-55ad-4278-81ff-da7e8ebeec92">
      <name>Alexander-Schänke</name>
      <description><![CDATA[Rochusstraße 240<br />53123 Bonn]]></description>
      <Point>
        <coordinates>7.04671127310797,50.7142723902553</coordinates>
      </Point>
    </Placemark>
    <Placemark id="a9ada01c-4dbf-4e5d-b4ce-184c4a93cb97">
      <name>Sieg-Rheinischer-Hof</name>
      <description><![CDATA[Telefon: +49 2242 26901881<br />Telefax: +49 2242 80070<br /><a href="mailto:info@sieg-rheinischer-hof.de">info@sieg-rheinischer-hof.de</a><br /><a href="http://bali-hennef.de" target="_blank">Website</a><br />Bonner Straße 77<br />53773 Hennef (Sieg)]]></description>
      <Point>
        <coordinates>7.27180899986943,50.7726957880701</coordinates>
      </Point>
    </Placemark>
    <Placemark id="12d494d2-b9db-4222-b32e-31c16df2b5c3">
      <name>Quattro Passi</name>
      <description><![CDATA[Burgallee 1<br />53840 Troisdorf]]></description>
      <Point>
        <coordinates>7.16496117900132,50.8176365796348</coordinates>
      </Point>
    </Placemark>
    <Placemark id="643c41d7-0ccb-47f1-a23c-cd8fa02dd58e">
      <name>Hotel Otto</name>
      <description><![CDATA[Telefon: +49 2244 3683<br />Telefax: +49 2244 81357<br /><a href="mailto:service@hotelotto.de">service@hotelotto.de</a><br /><a href="http://www.hotelotto.de" target="_blank">Website</a><br />Steinringer Straße 5<br />53639 Königswinter]]></description>
      <Point>
        <coordinates>7.24820608008705,50.6968283009439</coordinates>
      </Point>
    </Placemark>
    <Placemark id="232bae84-ebc3-44bc-82fe-612e67c87ed8">
      <name>Beim Onkel Hakki</name>
      <description><![CDATA[Drachenfelsstraße 55<br />53639 Königswinter]]></description>
      <Point>
        <coordinates>7.19884693406522,50.6736870461157</coordinates>
      </Point>
    </Placemark>
    <Placemark id="5c9e8ff5-165d-455a-ad46-7e6133d964eb">
      <name>Gaststätte Huth‎</name>
      <Point>
        <coordinates>7.12654131227787,50.6974094884457</coordinates>
      </Point>
    </Placemark>
    <Placemark id="e5481520-6ea5-4ea3-a034-bddc8cb31717">
      <name>Dorfschänke</name>
      <description><![CDATA[Holzgasse 44<br />53347 Alfter]]></description>
      <Point>
        <coordinates>7.00964388948588,50.735890329257</coordinates>
      </Point>
    </Placemark>
    <Placemark id="03d61789-7a82-42f0-896e-44b9d1470b4e">
      <name>Hotel/Gasthaus Zur Krone</name>
      <description><![CDATA[Kronenstraße 17<br />53347 Alfter]]></description>
      <Point>
        <coordinates>7.01118119394106,50.7380063906373</coordinates>
      </Point>
    </Placemark>
    <Placemark id="2e3efa0a-2168-4092-986c-08bd0d13ff1d">
      <name>Il Duetto</name>
      <description><![CDATA[Brandenburger Straße 2A<br />Bonn]]></description>
      <Point>
        <coordinates>7.14266553263864,50.7022966068932</coordinates>
      </Point>
    </Placemark>
    <Placemark id="5c82e921-96dc-4e72-877f-8ed006d7c8f2">
      <name>Marco Polo</name>
      <Point>
        <coordinates>6.9243170670933,50.7828604045754</coordinates>
      </Point>
    </Placemark>
    <Placemark id="21d4132a-03c0-492c-8ccb-1d638500d4cf">
      <name>Adelheidis Stube</name>
      <description><![CDATA[Adelheidisstraße 5<br />53225 Vilich]]></description>
      <Point>
        <coordinates>7.12945248261912,50.7535792135539</coordinates>
      </Point>
    </Placemark>
    <Placemark id="c6532776-39ea-427e-b451-524df83f8448">
      <name>Friesdorfer Hof</name>
      <description><![CDATA[<a href="http://www.friesdorfer.de/" target="_blank">Website</a><br />Bernkasteler Straße 46<br />53175 Bonn]]></description>
      <Point>
        <coordinates>7.13012289531565,50.6971897942714</coordinates>
      </Point>
    </Placemark>
    <Placemark id="bfdd7235-0aee-4821-9c27-9a5823942739">
      <name>Pizzeria Nunzio</name>
      <description><![CDATA[Telefon: +49 2226 9002074<br />Telefax: +49 2226 9087989<br /><a href="www.pizzeria-nunzio.de" target="_blank">Website</a><br />Aachener Straße 2<br />53359 Rheinbach]]></description>
      <Point>
        <coordinates>6.94555458788281,50.6277184731901</coordinates>
      </Point>
    </Placemark>
    <Placemark id="2578f12e-4351-4f69-b5b5-c0c33c22c686">
      <name>Knusperhäuschen - Das kleine Steakhaus</name>
      <description><![CDATA[<a href="http://www.knusperhaeuschen-steakhaus.de" target="_blank">Website</a><br />Mendener Straße 58<br />53757 Sankt Augustin]]></description>
      <Point>
        <coordinates>7.18870410111824,50.7844830093521</coordinates>
      </Point>
    </Placemark>
    <Placemark id="040732a7-8138-48da-aedb-afbf137c6a9c">
      <name>Weinwirtschaft zum Böllchen</name>
      <Point>
        <coordinates>7.21242959591865,50.6582889653252</coordinates>
      </Point>
    </Placemark>
    <Placemark id="2a52fd42-9a14-483d-a338-ae3155fb5f95">
      <name>Ephesus</name>
      <description><![CDATA[Euskirchener Straße 190<br />50321 Brühl]]></description>
      <Point>
        <coordinates>6.88359832172626,50.810416082415</coordinates>
      </Point>
    </Placemark>
    <Placemark id="9166b860-6cf1-4a2e-8956-b50cf9998d42">
      <name>Milano</name>
      <description><![CDATA[Telefon: +49-2241-3018-473<br />Telefax: +49-2241-3018-474<br /><a href="mailto:info@ristorante-milanobar.de">info@ristorante-milanobar.de</a><br /><a href="http://www.ristorantemilanobar.de/" target="_blank">Website</a><br />Markt 30<br />53721 Siegburg]]></description>
      <Point>
        <coordinates>7.20808291775338,50.7971332946319</coordinates>
      </Point>
    </Placemark>
    <Placemark id="0542cc92-4151-4125-a3bd-b1053e5009d8">
      <name>Trattoria La Grappa</name>
      <description><![CDATA[Aegidienberger Straße 96<br />]]></description>
      <Point>
        <coordinates>7.30034789243848,50.6657160130665</coordinates>
      </Point>
    </Placemark>
    <Placemark id="1a75b79d-61f8-4eac-a899-b76be357426a">
      <name>Rheinterrassen</name>
      <description><![CDATA[Römerstraße 99<br />53332 Bornheim]]></description>
      <Point>
        <coordinates>7.02867611876118,50.7910381658802</coordinates>
      </Point>
    </Placemark>
    <Placemark id="b86924e3-df1c-41c1-9726-2e70f5f8d547">
      <name>Alte Schmiede</name>
      <description><![CDATA[Mainzer Straße 173<br />53179 Bonn]]></description>
      <Point>
        <coordinates>7.19155411222536,50.6617478431485</coordinates>
      </Point>
    </Placemark>
    <Placemark id="aa70dfda-4bb5-41d4-87fd-0b42fd12835d">
      <name>Goldener Ochse</name>
      <Point>
        <coordinates>7.20549136799022,50.8017946139143</coordinates>
      </Point>
    </Placemark>
    <Placemark id="8962a954-cae7-40eb-bdfe-05d75659ec13">
      <name>Hagen</name>
      <Point>
        <coordinates>7.25812671475875,50.6822589906832</coordinates>
      </Point>
    </Placemark>
    <Placemark id="1c9000d3-a17f-4978-b5c2-b1e6fd3c5812">
      <name>Tempora</name>
      <description><![CDATA[Telefon: +4922854861112<br /><a href="http://www.tempora-bonn.de" target="_blank">Website</a><br />Lennéstraße 20<br />53113 Bonn]]></description>
      <Point>
        <coordinates>7.10606295773497,50.7292091029767</coordinates>
      </Point>
    </Placemark>
    <Placemark id="515eacf1-aa7d-4ae5-a8fb-cb8b9ac8063e">
      <name>Saverio Vini</name>
      <description><![CDATA[<a href="http://www.qype.com/place/2659436-Saverio-Vini-Weinbar-Bonn" target="_blank">Website</a><br />Magdalenenstraße 19<br />53121 Bonn]]></description>
      <Point>
        <coordinates>7.07444944625623,50.7261636959793</coordinates>
      </Point>
    </Placemark>
    <Placemark id="87ca5d20-64ee-4eda-8652-f09802d52f41">
      <name>Weinhaus Kinkel-Stuben</name>
      <Point>
        <coordinates>7.16758416979942,50.7117098144762</coordinates>
      </Point>
    </Placemark>
    <Placemark id="d57ad8a3-b6e3-454d-8346-9f9f92feb153">
      <name><![CDATA[L'Osteria]]></name>
      <description><![CDATA[Telefon: +49 2241 2016502<br />Telefax: +49 2241 2016503<br /><a href="mailto:troisdorf@losteria.de">troisdorf@losteria.de</a><br /><a href="http://www.losteria.de/?page=LocationPage&locationId=troi" target="_blank">Website</a><br />Junkersring 1<br />53844 Troisdorf]]></description>
      <Point>
        <coordinates>7.10857134241825,50.8156731223936</coordinates>
      </Point>
    </Placemark>
    <Placemark id="c3afd36c-58d1-4f98-9310-b481022eb117">
      <name>Bistro im Römerhof</name>
      <description><![CDATA[<a href="http://www.bistro-roemerhof.de/" target="_blank">Website</a>]]></description>
      <Point>
        <coordinates>6.96788293292183,50.7361926161484</coordinates>
      </Point>
    </Placemark>
    <Placemark id="1ea394fa-bcd1-4acd-8a17-15e73daf691a">
      <name>Asslan Grill</name>
      <description><![CDATA[Endenicher Straße 57<br />53115 Bonn]]></description>
      <Point>
        <coordinates>7.08629858417988,50.7336860991067</coordinates>
      </Point>
    </Placemark>
    <Placemark id="f4e1df28-0c28-4476-97f4-5c7b0fc5e81b">
      <name>Altes Rathaus</name>
      <Point>
        <coordinates>7.22710860665033,50.6453397878512</coordinates>
      </Point>
    </Placemark>
    <Placemark id="ff32de71-87b2-448f-9b95-7e3f946a7809">
      <name>Zur Post</name>
      <description><![CDATA[Telefon: +49 228 452 608<br /><a href="http://www.wirtshaus-zur-post-mondorf.de/" target="_blank">Website</a><br />Provinzialstraße 3<br />Niederkassel]]></description>
      <Point>
        <coordinates>7.07080927672447,50.7744812664852</coordinates>
      </Point>
    </Placemark>
    <Placemark id="5c850d95-88af-44c1-a12e-c88b47aa7185">
      <name>Zur Waldschänke</name>
      <description><![CDATA[Lauthausener Straße 8<br />53773 Hennef (Sieg)]]></description>
      <Point>
        <coordinates>7.3046484869919,50.7814093327032</coordinates>
      </Point>
    </Placemark>
    <Placemark id="786078a0-7a82-42e7-8c4f-c0328309efb0">
      <name>La Paisana</name>
      <Point>
        <coordinates>6.90364431712292,50.8210988869159</coordinates>
      </Point>
    </Placemark>
    <Placemark id="2ee052b0-d23e-4ba7-a82d-729c4e20f1d4">
      <name>Am Bergerhof</name>
      <description><![CDATA[Frankfurter Straße 82<br />53840 Troisdorf]]></description>
      <Point>
        <coordinates>7.17433766857781,50.8144812038913</coordinates>
      </Point>
    </Placemark>
    <Placemark id="f822c896-2a37-4aba-8a7b-422b1999c5bc">
      <name>Zum Oberdorf</name>
      <description><![CDATA[Oberstraße 3<br />]]></description>
      <Point>
        <coordinates>7.17138524121632,50.6614228889209</coordinates>
      </Point>
    </Placemark>
    <Placemark id="6ffc9310-ae6f-43b0-b656-a8f8551a22f2">
      <name>Sängerheim</name>
      <description><![CDATA[Teichstraße 9<br />53773 Hennef (Sieg)]]></description>
      <Point>
        <coordinates>7.31600257071119,50.8053902266535</coordinates>
      </Point>
    </Placemark>
    <Placemark id="ac35daeb-3712-4a92-bc6f-ee036ca16a88">
      <name>Mosquito</name>
      <description><![CDATA[<a href="www.mosquito-rheinbach.de" target="_blank">Website</a>]]></description>
      <Point>
        <coordinates>6.94680998349237,50.626810803788</coordinates>
      </Point>
    </Placemark>
    <Placemark id="e6b81e38-2185-45a1-a4c4-a8398c3e93d5">
      <name>Shanghai</name>
      <description><![CDATA[Schieffelingsweg 31<br />53123 Bonn]]></description>
      <Point>
        <coordinates>7.06045064537881,50.7162871695585</coordinates>
      </Point>
    </Placemark>
    <Placemark id="a34578e4-bb51-49b9-acf0-f13c756afda5">
      <name>Bierhaus Machold</name>
      <description><![CDATA[<a href="www.bierhaus-machold.com" target="_blank">Website</a>]]></description>
      <Point>
        <coordinates>7.092894374322,50.7400351966488</coordinates>
      </Point>
    </Placemark>
    <Placemark id="790d6b8c-d9bb-42de-be80-593ac8ab022e">
      <name>Bulut Feinkost</name>
      <Point>
        <coordinates>7.19326619528864,50.7671243691154</coordinates>
      </Point>
    </Placemark>
    <Placemark id="28d06b1b-ba32-4e81-b7c7-222d44f32174">
      <name>Mikado</name>
      <description><![CDATA[<a href="http://www.mikado-sushi-nudeln.de" target="_blank">Website</a><br />Kamillenweg 20<br />53757 Sankt Augustin]]></description>
      <Point>
        <coordinates>7.20187161308924,50.769635773165</coordinates>
      </Point>
    </Placemark>
    <Placemark id="ee4a83d3-bc40-4eb4-ad14-099bbdf009e5">
      <name>Lamme</name>
      <Point>
        <coordinates>7.0987622595894,50.7237890896645</coordinates>
      </Point>
    </Placemark>
    <Placemark id="b28a0b29-0d08-403e-aeda-44efe0445154">
      <name>Altes Fährhaus</name>
      <description><![CDATA[Telefon: +49 2223 24868<br /><a href="http://www.altes-faehrhaus.net/" target="_blank">Website</a><br />Rheinallee 4<br />53639 ]]></description>
      <Point>
        <coordinates>7.19380141153492,50.6717235638907</coordinates>
      </Point>
    </Placemark>
    <Placemark id="613e014e-0b54-4dea-bf8a-bffe2d52c945">
      <name>Rheingold</name>
      <description><![CDATA[Telefon: +49 228 450099<br /><a href="http://www.rheingold-hotel.com/" target="_blank">Website</a><br />Rheinallee 27<br />53859 Niederkassel]]></description>
      <Point>
        <coordinates>7.06194278648039,50.7752141958417</coordinates>
      </Point>
    </Placemark>
    <Placemark id="102f65d6-e633-4ffa-a305-e81309a6d7ab">
      <name>Marktstube</name>
      <description><![CDATA[Magdalenenstraße 2a<br />53842 Troisdorf]]></description>
      <Point>
        <coordinates>7.13605646217303,50.8146922770268</coordinates>
      </Point>
    </Placemark>
    <Placemark id="32072c8d-1e31-4305-8498-118c7d989f10">
      <name>Rustika</name>
      <description><![CDATA[Betreiber: Oskar Sucic<br />Telefon: 02241 - 804030<br />Mendener Straße 27<br />53840 Troisdorf]]></description>
      <Point>
        <coordinates>7.15947767718285,50.8049614296697</coordinates>
      </Point>
    </Placemark>
    <Placemark id="d780beff-de5b-4fdc-b613-dd3b47755227">
      <name>Casino Deutsche Welle</name>
      <Point>
        <coordinates>7.12801302220784,50.7169673057883</coordinates>
      </Point>
    </Placemark>
    <Placemark id="0f5f5dc5-0da3-46a2-aef1-4f15dc78794e">
      <name>Divan</name>
      <Point>
        <coordinates>7.10080098612671,50.738521283722</coordinates>
      </Point>
    </Placemark>
    <Placemark id="737c9912-8c5c-4301-b9fb-031f084ebf24">
      <name>Subway Bad Godesberg</name>
      <description><![CDATA[Telefon: +4922893598982<br />Telefax: +4922893598983<br /><a href="http://www.subway-sandwiches.de" target="_blank">Website</a><br />Moltkestraße 7-9<br />53173 Bonn]]></description>
      <Point>
        <coordinates>7.15506821244037,50.6862703061929</coordinates>
      </Point>
    </Placemark>
    <Placemark id="a0c8c864-9b20-4db1-8035-39615faf20a1">
      <name>El Torero</name>
      <description><![CDATA[Friesdorfer Straße 244a<br />]]></description>
      <Point>
        <coordinates>7.13807311890717,50.6927837879291</coordinates>
      </Point>
    </Placemark>
    <Placemark id="34ae7ce6-3d85-4337-b017-3262daf8d629">
      <name>Gelateria La Dolce Vita</name>
      <description><![CDATA[Telefon: +49 0228 695264<br />Markt 7<br />Bonn]]></description>
      <Point>
        <coordinates>7.10218879340914,50.7351149996866</coordinates>
      </Point>
    </Placemark>
    <Placemark id="07d3dcd3-8124-42a2-9e1b-aa3e42efbe06">
      <name>da Verdi</name>
      <description><![CDATA[<a href="http://www.da-verdi.de/" target="_blank">Website</a><br />Mozartstraße 49<br />53115 Bonn]]></description>
      <Point>
        <coordinates>7.0876423740134,50.7338570668666</coordinates>
      </Point>
    </Placemark>
    <Placemark id="d71eaf14-d9c8-449d-aaab-6d25806bf8d8">
      <name>Lui e Lei</name>
      <Point>
        <coordinates>7.18810465532915,50.7803061746078</coordinates>
      </Point>
    </Placemark>
    <Placemark id="879df185-c0e4-447d-b23a-f0cf7c81888c">
      <name>Öffentliche Gaststätte Bootshaus</name>
      <Point>
        <coordinates>7.03689855022332,50.7959615570437</coordinates>
      </Point>
    </Placemark>
    <Placemark id="207fceb5-8240-4604-88f0-f4ad0e3a167f">
      <name>Basilico</name>
      <Point>
        <coordinates>7.0999669003854,50.7079711769832</coordinates>
      </Point>
    </Placemark>
    <Placemark id="9fe78920-f754-4eaf-a838-51245c6eda6e">
      <name>Alt Heidelberg</name>
      <description><![CDATA[Bahnstraße 92<br />53842 Troisdorf]]></description>
      <Point>
        <coordinates>7.14692757234037,50.8126901881075</coordinates>
      </Point>
    </Placemark>
    <Placemark id="caeeb3e7-9276-4809-89bc-4e82d00bc35a">
      <name>nautilus</name>
      <description><![CDATA[Rheinstraße 82<br />53179 Bonn]]></description>
      <Point>
        <coordinates>7.17806773413965,50.6811665182028</coordinates>
      </Point>
    </Placemark>
    <Placemark id="c750b4fc-3a66-4c54-9812-8c8916ce763d">
      <name>Max</name>
      <description><![CDATA[Heerstraße 121<br />53111 ]]></description>
      <Point>
        <coordinates>7.09149318214183,50.7385797831815</coordinates>
      </Point>
    </Placemark>
    <Placemark id="1679e2a2-a74d-4aa1-ba23-718bc9db44b4">
      <name>Prinzenhof</name>
      <Point>
        <coordinates>7.04005322352188,50.7744997664824</coordinates>
      </Point>
    </Placemark>
    <Placemark id="269b2a50-486c-4ef7-8250-ba1e75e9c611">
      <name>Rüen Thai</name>
      <Point>
        <coordinates>7.10546369160893,50.7377759635111</coordinates>
      </Point>
    </Placemark>
    <Placemark id="5a56508c-1c42-4012-a119-add122ad9241">
      <name>Zur Lese</name>
      <Point>
        <coordinates>7.10908219540489,50.7319849728583</coordinates>
      </Point>
    </Placemark>
    <Placemark id="45bfa4df-a419-4850-ab6d-b390eeacd2a9">
      <name><![CDATA[L'Italiano]]></name>
      <description>Telefon: 02241/42765</description>
      <Point>
        <coordinates>7.13113287118959,50.8012587780397</coordinates>
      </Point>
    </Placemark>
    <Placemark id="ad8b8c27-84b4-449a-9aaa-c9683272f080">
      <name>Kantine</name>
      <Point>
        <coordinates>7.12382498652175,50.7163169698477</coordinates>
      </Point>
    </Placemark>
    <Placemark id="71fe4b3a-f9ee-444f-af61-1091a2dc1d3b">
      <name>Weinhaus Muffendorf</name>
      <description><![CDATA[Muffendorfer Hauptstraße 37<br />53177 Bonn]]></description>
      <Point>
        <coordinates>7.16013282418071,50.6720044649061</coordinates>
      </Point>
    </Placemark>
    <Placemark id="8f6dc00e-a852-45a9-92ee-999246908111">
      <name>Pelato</name>
      <description><![CDATA[<a href="http://www.pelato-bonn.de/" target="_blank">Website</a><br />Endenicher Straße 282<br />53121 Bonn]]></description>
      <Point>
        <coordinates>7.07206217338868,50.726828509591</coordinates>
      </Point>
    </Placemark>
    <Placemark id="4f64ffda-3277-4022-a179-bedac0ffa334">
      <name>Haus Pickenhan</name>
      <description><![CDATA[Dambroicher Straße 46<br />53773 Hennef (Sieg)]]></description>
      <Point>
        <coordinates>7.26280368701988,50.7463561351131</coordinates>
      </Point>
    </Placemark>
    <Placemark id="f11ba24c-f6b0-43b8-b07e-ecdc12142d7b">
      <name>Salento</name>
      <description><![CDATA[Telefon: +49 2242 9016666<br /><a href="http://www.salento-hennef.de/" target="_blank">Website</a><br />Frankfurter Straße 55<br />53773 Hennef (Sieg)]]></description>
      <Point>
        <coordinates>7.28942790449543,50.7734721301732</coordinates>
      </Point>
    </Placemark>
    <Placemark id="439964a0-a228-4183-bf97-3ca041879b96">
      <name>Il Punto</name>
      <description><![CDATA[Telefon: +49 228 26 38 33<br /><a href="http://www.ilpunto.de/" target="_blank">Website</a><br />Lennéstraße 6<br />53113 Bonn]]></description>
      <Point>
        <coordinates>7.10514371170473,50.730334561516</coordinates>
      </Point>
    </Placemark>
    <Placemark id="fbfcd755-0b15-479a-b38f-5497cfdc2eed">
      <name>Godesburger</name>
      <description><![CDATA[Telefon: +4922890901218<br /><a href="mailto:info@godesburger.com">info@godesburger.com</a><br /><a href="http://www.godesburger.com/" target="_blank">Website</a><br />Moltkeplatz 2<br />53173 Bonn]]></description>
      <Point>
        <coordinates>7.15492502098408,50.6856176662009</coordinates>
      </Point>
    </Placemark>
    <Placemark id="407b21f0-0bce-49ed-8164-07abc6f216bc">
      <name>Spargel Weber</name>
      <description><![CDATA[Knipsgasse 24<br />53347 Alfter]]></description>
      <Point>
        <coordinates>7.00813852208056,50.7364189142938</coordinates>
      </Point>
    </Placemark>
    <Placemark id="ff51b41c-75d9-49e2-bee5-e9199e36e29b">
      <name>Mini Pizzeria Mama Mia</name>
      <description><![CDATA[Rochusstraße 43<br />53123 Bonn]]></description>
      <Point>
        <coordinates>7.05799698149064,50.7195257901748</coordinates>
      </Point>
    </Placemark>
    <Placemark id="16f31f80-d490-4fa3-b6ba-3a736ac666ac">
      <name>Vitus</name>
      <description><![CDATA[<a href="http://www.vitvs.de/" target="_blank">Website</a><br />Rheinstraße 26<br />53179 ]]></description>
      <Point>
        <coordinates>7.17245600307978,50.6840161640453</coordinates>
      </Point>
    </Placemark>
    <Placemark id="92c4ca97-7048-4b2f-81b9-0515836fb840">
      <name>Im Altertümche</name>
      <description><![CDATA[Kölner Straße 153<br />53840 Troisdorf]]></description>
      <Point>
        <coordinates>7.15015947894664,50.817308633719</coordinates>
      </Point>
    </Placemark>
    <Placemark id="e621ab80-c350-4384-93d4-7b86a7453bfe">
      <name>Blumenhof</name>
      <description><![CDATA[<a href="http://www.restaurantblumenhof.de" target="_blank">Website</a><br />Mendener Straße 48<br />53757 Sankt Augustin]]></description>
      <Point>
        <coordinates>7.19038790328679,50.7841391711013</coordinates>
      </Point>
    </Placemark>
    <Placemark id="9b6b3d80-6c38-40d7-9e4e-a632660b50fd">
      <name>Zum Engel</name>
      <description><![CDATA[Am Engelsgraben 16<br />53757 Sankt Augustin]]></description>
      <Point>
        <coordinates>7.2028955063137,50.7797285709973</coordinates>
      </Point>
    </Placemark>
    <Placemark id="a1ac5407-2727-4ccc-a19d-2c69bac1bc85">
      <name>Bürgerhof</name>
      <description><![CDATA[Betreiber: Fam. Noroozi<br />Telefon: +49 02242 3412<br /><a href="http://www.buergerhof-hennef.de/" target="_blank">Website</a><br />Annoplatz 1<br />53773 Hennef]]></description>
      <Point>
        <coordinates>7.301903245097,50.7980058921602</coordinates>
      </Point>
    </Placemark>
    <Placemark id="97e933f9-08fc-4956-8250-2ed99b5e5a70">
      <name><![CDATA[L'Osteria]]></name>
      <description><![CDATA[Telefon: +4922898148488<br /><a href="http://www.losteria.de" target="_blank">Website</a><br />Portlandweg 4<br />53227 Bonn]]></description>
      <Point>
        <coordinates>7.1502036555138,50.7180757682102</coordinates>
      </Point>
    </Placemark>
    <Placemark id="d3e6ec43-fb09-4f94-8ab5-f7bae15ab6b5">
      <name>Kantine BMWi</name>
      <Point>
        <coordinates>7.05560027631261,50.7113914940933</coordinates>
      </Point>
    </Placemark>
    <Placemark id="d132d91b-474b-4e34-b599-380de4911174">
      <name>Schützenhof Bonn</name>
      <description><![CDATA[Telefon: +49 228 96699222<br /><a href="mailto:info@schuetzenhof-bonn.de">info@schuetzenhof-bonn.de</a><br /><a href="http://www.schuetzenhof-bonn.de" target="_blank">Website</a>]]></description>
      <Point>
        <coordinates>7.0553400343748,50.7441391155452</coordinates>
      </Point>
    </Placemark>
    <Placemark id="6d6addb6-865c-4794-991a-40786dddd7f4">
      <name>Bonn Best Fried Chicken</name>
      <description><![CDATA[Telefon: +4922835065822<br /><a href="mailto:bbfc@outlook.de">bbfc@outlook.de</a><br /><a href="http://www.bonnbestfriedchickenbbfc.de" target="_blank">Website</a><br />Bonner Straße 67<br />53173 Bonn]]></description>
      <Point>
        <coordinates>7.15081325226561,50.688421273221</coordinates>
      </Point>
    </Placemark>
    <Placemark id="aef49f75-83fa-42f7-8dd0-ed0e677d9bd2">
      <name>Ai Parioli</name>
      <description><![CDATA[Telefon: +49 2241 82666<br /><a href="http://www.ristorante-ai-parioli.de/" target="_blank">Website</a>]]></description>
      <Point>
        <coordinates>7.1561752947227,50.8081123237807</coordinates>
      </Point>
    </Placemark>
    <Placemark id="baea5600-c28a-41e9-ac9b-9f06d65c3882">
      <name>Brauerstube</name>
      <description><![CDATA[Hippolytusstraße 24<br />53840 Troisdorf]]></description>
      <Point>
        <coordinates>7.15782523419998,50.8137450250319</coordinates>
      </Point>
    </Placemark>
    <Placemark id="94dc7416-32e7-42ed-9cc6-0a8849d3ccca">
      <name>Peking Ente Haus</name>
      <description><![CDATA[Telefon: +49 228 258100<br /><a href="http://www.pekingentehaus.de/" target="_blank">Website</a><br />Im Mühlenbach 2c<br />53127 Bonn]]></description>
      <Point>
        <coordinates>7.07130417495195,50.713836862711</coordinates>
      </Point>
    </Placemark>
    <Placemark id="ccfc786c-b789-4f17-a97e-f5d865be8094">
      <name>Alt Bergheim</name>
      <description><![CDATA[<a href="http://www.alt-bergheim.de/" target="_blank">Website</a>]]></description>
      <Point>
        <coordinates>7.09190218509069,50.7740286057278</coordinates>
      </Point>
    </Placemark>
    <Placemark id="72a5f5db-95d3-44e8-b89a-1c3af4b3fb1e">
      <name>Thüringer Kaiserstube</name>
      <description><![CDATA[Telefon: +49 2241 2419678<br /><a href="http://www.thueringerkaiserstube.de" target="_blank">Website</a>]]></description>
      <Point>
        <coordinates>7.15507611761487,50.8149226032366</coordinates>
      </Point>
    </Placemark>
    <Placemark id="a5fe817a-1acb-4035-b06b-a618457efc0e">
      <name>Agguarell</name>
      <Point>
        <coordinates>7.17637274755007,50.8088597147965</coordinates>
      </Point>
    </Placemark>
    <Placemark id="e1affd18-0e84-4c5d-8cb6-0a020c9615cb">
      <name>Va Bene</name>
      <description><![CDATA[Telefon: +49 2242 83320<br />Telefax: +49 2242 9019242<br /><a href="mailto:info@ristorantevabene.de">info@ristorantevabene.de</a><br /><a href="http://ristorantevabene.de" target="_blank">Website</a>]]></description>
      <Point>
        <coordinates>7.28811741967673,50.7738693734521</coordinates>
      </Point>
    </Placemark>
    <Placemark id="362f9842-d79d-4873-85b0-3ab1f95967a5">
      <name>Haus am Rhein</name>
      <Point>
        <coordinates>7.1237960607696,50.7264711684715</coordinates>
      </Point>
    </Placemark>
    <Placemark id="9704d466-cb45-4822-9a9a-a8c763ab623d">
      <name>Em Wingert</name>
      <description><![CDATA[Telefon: 02242 2095<br /><a href="http://www.gasthof-em-wingert.de" target="_blank">Website</a>]]></description>
      <Point>
        <coordinates>7.30642454617791,50.7489550896301</coordinates>
      </Point>
    </Placemark>
    <Placemark id="3c250c14-cfaf-44db-8799-379c018893c5">
      <name>Planet Hellas</name>
      <description><![CDATA[Telefon: +49 228 4107314<br />Clemens-August-Straße 81<br />53115 Bonn]]></description>
      <Point>
        <coordinates>7.08749873339947,50.7206030827986</coordinates>
      </Point>
    </Placemark>
    <Placemark id="6672e9e6-a441-4945-b528-2bcefe02092f">
      <name>Le Petit Poisson</name>
      <Point>
        <coordinates>7.09796859803588,50.7385444788517</coordinates>
      </Point>
    </Placemark>
    <Placemark id="95dcc8d5-8275-4bf8-80fd-9fb7687a38b7">
      <name>Brauhaus Hünten</name>
      <Point>
        <coordinates>7.11305562356961,50.7030493757567</coordinates>
      </Point>
    </Placemark>
    <Placemark id="78bdfd79-6eb9-408a-a9f7-5f97d5469ad5">
      <name>Haus Schlesien</name>
      <description><![CDATA[<a href="http://www.hausschlesien.info/" target="_blank">Website</a>]]></description>
      <Point>
        <coordinates>7.23093797083234,50.6963561694839</coordinates>
      </Point>
    </Placemark>
    <Placemark id="237bf709-c406-4ebc-8809-810e989b7978">
      <name>San Telmo</name>
      <Point>
        <coordinates>7.09598421957326,50.7392435109992</coordinates>
      </Point>
    </Placemark>
    <Placemark id="5fa7478e-b697-4d9c-9937-68f5504e0d96">
      <name>Casa Bella Italia</name>
      <description><![CDATA[<a href="casa-bella-italia.de" target="_blank">Website</a><br />Gielgenstraße 11<br />53229 ]]></description>
      <Point>
        <coordinates>7.19939495131455,50.7402795897953</coordinates>
      </Point>
    </Placemark>
    <Placemark id="20a98bd3-4f55-4162-91e2-9527d12101fc">
      <name>Si[e]gnum</name>
      <Point>
        <coordinates>7.25723980807874,50.7816102863267</coordinates>
      </Point>
    </Placemark>
    <Placemark id="f77e18a8-f930-439e-b64c-57b6ee61eba7">
      <name>Bahnhöfchen</name>
      <description><![CDATA[Betreiber: Bhf Gaststätten GmbH<br />Telefon: +49 228 463436<br />Telefax: +49 228 40399312<br /><a href="mailto:info@bahnhoefchen.de">info@bahnhoefchen.de</a><br /><a href="http://www.bahnhoefchen.de/" target="_blank">Website</a><br />Rheinaustraße 116<br />53225 Bonn]]></description>
      <Point>
        <coordinates>7.11320773710121,50.7406472424011</coordinates>
      </Point>
    </Placemark>
    <Placemark id="fabe5a80-97e6-42f3-8c1a-64f3cc4ac20e">
      <name>Haus Sonneck</name>
      <description><![CDATA[Hauptstraße 28<br />53757 Sankt Augustin]]></description>
      <Point>
        <coordinates>7.20997795680902,50.7711108807236</coordinates>
      </Point>
    </Placemark>
    <Placemark id="53771a1e-6405-4bec-a5b1-e6a839bd77f5">
      <name><![CDATA[Gino's]]></name>
      <description><![CDATA[Telefon: +49 228 231332<br />Friedrich-Ebert-Allee 69<br />53113 Bonn]]></description>
      <Point>
        <coordinates>7.12888088460383,50.710117678978</coordinates>
      </Point>
    </Placemark>
    <Placemark id="80c4c612-52ba-4d68-bd50-8073527dad09">
      <name>Gasthof Alt Morenhoven</name>
      <description><![CDATA[Telefon: +49 2226 12220<br />Swiststraße 98<br />53913 Morenhoven]]></description>
      <Point>
        <coordinates>6.95412534904814,50.6659214866341</coordinates>
      </Point>
    </Placemark>
    <Placemark id="6659b05f-cdd5-430e-bba7-8dbe48702986">
      <name><![CDATA[Becker's Restaurant]]></name>
      <description><![CDATA[Telefon: +49 2223 9071017<br />Hauptstraße 411<br />53639 Königswinter]]></description>
      <Point>
        <coordinates>7.19379979456741,50.6746395807266</coordinates>
      </Point>
    </Placemark>
    <Placemark id="7b011cab-7898-407e-9976-15cc5b7b202b">
      <name>Ennert Bräu</name>
      <description><![CDATA[An den Hecken 1<br />53229 Bonn]]></description>
      <Point>
        <coordinates>7.15013933841799,50.7353593719346</coordinates>
      </Point>
    </Placemark>
    <Placemark id="517384c9-cd45-4b81-b829-eddd3cb3ac1f">
      <name>Rheinpavillon</name>
      <description><![CDATA[Rathenauufer 1<br />53113 Bonn]]></description>
      <Point>
        <coordinates>7.10959590955262,50.7321882120514</coordinates>
      </Point>
    </Placemark>
    <Placemark id="4e582746-9a40-4bd8-ae23-465ac3f8ae0f">
      <name>Partyservice Wielpütz</name>
      <Point>
        <coordinates>7.3141613879533,50.7665861894289</coordinates>
      </Point>
    </Placemark>
    <Placemark id="43d46751-1d75-4878-b0bb-b901e45c85f2">
      <name>Rosa Lu</name>
      <description><![CDATA[Telefon: +49 228 637730<br /><a href="http://www.rosalu.de/" target="_blank">Website</a>]]></description>
      <Point>
        <coordinates>7.08433010589779,50.7400769806337</coordinates>
      </Point>
    </Placemark>
    <Placemark id="4fc2389b-21f8-44e7-a4d1-62bda92d75c8">
      <name>Ewige Lampe</name>
      <description><![CDATA[Bonngasse 17<br />53111 Bonn]]></description>
      <Point>
        <coordinates>7.10092728925565,50.7363771058763</coordinates>
      </Point>
    </Placemark>
    <Placemark id="ee89cc4d-dfba-4ba6-8873-e4262f283906">
      <name>Markt Grill</name>
      <Point>
        <coordinates>7.28341617646881,50.7745139682641</coordinates>
      </Point>
    </Placemark>
    <Placemark id="f53aacf1-e43c-474c-9789-b3852b2d3d59">
      <name>Drachenburg</name>
      <description><![CDATA[Telefon: +49 2242 80388<br /><a href="http://drachenburg-hennef.jimdo.com/" target="_blank">Website</a>]]></description>
      <Point>
        <coordinates>7.28335059945307,50.7750314782479</coordinates>
      </Point>
    </Placemark>
    <Placemark id="f1bdf689-9c33-4558-9c7f-5644c4e6acd8">
      <name>Medallion</name>
      <Point>
        <coordinates>6.98452080996207,50.8070217855125</coordinates>
      </Point>
    </Placemark>
    <Placemark id="6c6da57d-c120-4992-bc2b-45d2aa91c0f7">
      <name>Miyagi</name>
      <description><![CDATA[<a href="http://www.miyagi-restaurant.de/" target="_blank">Website</a><br />Sandkaule 3<br />]]></description>
      <Point>
        <coordinates>7.10286989605756,50.738085065331</coordinates>
      </Point>
    </Placemark>
    <Placemark id="32f9ced7-ef8d-4cc5-8bbe-a861d98f0a67">
      <name>Monopol</name>
      <description><![CDATA[Telefon: +49-2223-9250<br />Rheinallee 12<br />53639 Königswinter]]></description>
      <Point>
        <coordinates>7.19136527031592,50.6745198033563</coordinates>
      </Point>
    </Placemark>
    <Placemark id="2a73015d-9c76-408c-aaee-2f4883092ccf">
      <name>BestFriendAsia</name>
      <description><![CDATA[Telefon: +4922838779804<br /><a href="http://www.bestfriendbonn.de/" target="_blank">Website</a><br />Oppelner Straße 23<br />53119 Bonn]]></description>
      <Point>
        <coordinates>7.06432525334115,50.7464735836777</coordinates>
      </Point>
    </Placemark>
    <Placemark id="a1450bc5-3a98-4843-883c-a6b3d0826865">
      <name>Café Restaurant Bundeshäuschen</name>
      <description><![CDATA[Betreiber: Eberhard Opgenorth<br />Telefon: +49 228 441103<br />Telefax: +49 228 440605<br /><a href="mailto:Eberhard.Opgenorth@t-online.de">Eberhard.Opgenorth@t-online.de</a><br /><a href="http://www.bundeshaeuschen.de/" target="_blank">Website</a><br />Oberkasseler Ufer 4<br />53227 Bonn]]></description>
      <Point>
        <coordinates>7.16739287587786,50.7082974035344</coordinates>
      </Point>
    </Placemark>
    <Placemark id="6234d9bf-7271-4988-ac20-73f58ab99c2e">
      <name>Bastei</name>
      <description><![CDATA[Telefon: +49 228 3680433<br />Telefax: +49 228 3680435<br /><a href="mailto:basteibonn@aol.com">basteibonn@aol.com</a><br /><a href="http://www.bastei-bonn.de/" target="_blank">Website</a><br />Von-Sandt-Ufer 1<br />53173 Bonn]]></description>
      <Point>
        <coordinates>7.17138431189982,50.6904743346188</coordinates>
      </Point>
    </Placemark>
    <Placemark id="a554f7ff-25f6-4f74-9b14-90f890a53b6b">
      <name>Dalmatien</name>
      <Point>
        <coordinates>7.09931607096206,50.7328690613213</coordinates>
      </Point>
    </Placemark>
    <Placemark id="3c94b887-83e5-41d3-befe-00667b39d8d1">
      <name>Kreta Kouzina</name>
      <description><![CDATA[Telefon: 02241 1697087<br />Burggasse 5<br />53721 Siegburg]]></description>
      <Point>
        <coordinates>7.20718612960524,50.7984590804489</coordinates>
      </Point>
    </Placemark>
    <Placemark id="bcfbbb81-a72d-4a1f-8aab-aaa3f4d2fae9">
      <name>Indian Palace</name>
      <description><![CDATA[Telefon: +49228650413<br />Telefax: +49228655720<br /><a href="mailto:info@indian-palace.de">info@indian-palace.de</a><br /><a href="http://www.indian-palace.de" target="_blank">Website</a><br />Gotenstraße 126<br />53175 Bonn]]></description>
      <Point>
        <coordinates>7.14853476537897,50.6960633689186</coordinates>
      </Point>
    </Placemark>
    <Placemark id="9d1a274e-0a3d-4f7c-bd9b-bfb82ddb08b2">
      <name>Pavillion</name>
      <Point>
        <coordinates>7.15645278578778,50.6834600820281</coordinates>
      </Point>
    </Placemark>
    <Placemark id="948fca5a-e4ee-4f1b-a082-7bf4c2b508dc">
      <name>Restaurant Rheingold</name>
      <description><![CDATA[Telefon: +49 2224 969840<br /><a href="mailto:info@rheingold-badhonnef.de">info@rheingold-badhonnef.de</a><br /><a href="http://www.rheingold-badhonnef.de" target="_blank">Website</a><br />Rheinpromenade 6<br />53604 Bad Honnef]]></description>
      <Point>
        <coordinates>7.21751479406249,50.643492346963</coordinates>
      </Point>
    </Placemark>
    <Placemark id="fa31220a-1bd6-491c-9c40-be75efcf9f65">
      <name>Buisdorfer Hof</name>
      <Point>
        <coordinates>7.23368616099218,50.7838052127978</coordinates>
      </Point>
    </Placemark>
    <Placemark id="4ca959da-c2f9-4d11-91f7-abfae321d738">
      <name>Osteria Vincentina</name>
      <description><![CDATA[Rheinstraße 154<br />Bornheim]]></description>
      <Point>
        <coordinates>7.04684682268956,50.771706305795</coordinates>
      </Point>
    </Placemark>
    <Placemark id="a907e1ee-a998-4d14-88e5-f6c64d9ba8c5">
      <name>Caminetto</name>
      <Point>
        <coordinates>7.09961485062556,50.7452460825606</coordinates>
      </Point>
    </Placemark>
    <Placemark id="540eeb2c-d340-4221-9f47-09a7efbd3f61">
      <name>Bodega 2</name>
      <description><![CDATA[Am Burggraben 1<br />53121 Bonn]]></description>
      <Point>
        <coordinates>7.0718842171309,50.7257553975961</coordinates>
      </Point>
    </Placemark>
    <Placemark id="4e09e23e-ca89-4d1d-bcde-e71a99d488c7">
      <name>Weingut Menzenberg</name>
      <description><![CDATA[Menzenberg 12<br />53604 Bad Honnef]]></description>
      <Point>
        <coordinates>7.24570645775629,50.6299035828182</coordinates>
      </Point>
    </Placemark>
    <Placemark id="21c68642-1703-4834-bf0b-1a1a7c854c52">
      <name>Zur Möhn</name>
      <Point>
        <coordinates>7.06617775912006,50.7752430819432</coordinates>
      </Point>
    </Placemark>
    <Placemark id="c2289a66-a5ed-4865-ae29-d68a1eb310a0">
      <name>Interimsmensa Poppelsdorf</name>
      <description><![CDATA[Schubertstraße<br />53115 Bonn]]></description>
      <Point>
        <coordinates>7.08356909393158,50.7289217273319</coordinates>
      </Point>
    </Placemark>
    <Placemark id="d47425fe-2d4f-4463-90b1-d268e49c9413">
      <name>Gaststätte Küpper</name>
      <Point>
        <coordinates>7.10969125316752,50.650382072407</coordinates>
      </Point>
    </Placemark>
    <Placemark id="7f1534f8-b629-4d2a-8f7c-f27cea638b77">
      <name>Der Pate</name>
      <Point>
        <coordinates>7.15519424607473,50.7178217609215</coordinates>
      </Point>
    </Placemark>
    <Placemark id="88f7b491-0720-410c-be8e-97bdf6810e56">
      <name>Haus im Turm</name>
      <Point>
        <coordinates>7.21373125476534,50.6584733061687</coordinates>
      </Point>
    </Placemark>
    <Placemark id="d4440620-c644-4587-8725-60875010965e">
      <name>La Casa</name>
      <description><![CDATA[<a href="http://www.ristorantelacasa.de" target="_blank">Website</a><br />Siebengebirgsstraße 38<br />53639 Königswinter]]></description>
      <Point>
        <coordinates>7.24546240064177,50.7005972426074</coordinates>
      </Point>
    </Placemark>
    <Placemark id="47b71e4f-b9b9-4f40-aaf4-d153f5eee1e2">
      <name>Im grünen Papagei</name>
      <description><![CDATA[Telefon: +49228662100<br /><a href="http://im-grunen-papagei.de/" target="_blank">Website</a><br />Hohe Straße 57<br />53119 Bonn]]></description>
      <Point>
        <coordinates>7.05545855392306,50.7426938978224</coordinates>
      </Point>
    </Placemark>
    <Placemark id="f038a8f5-03a2-4488-aa72-01daeae4f825">
      <name>Zur Rheinbrücke</name>
      <description><![CDATA[Telefon: +49 228 47 66 08<br /><a href="zur-rheinbruecke.de" target="_blank">Website</a><br />Konrad-Adenauer-Platz<br />Bonn]]></description>
      <Point>
        <coordinates>7.11620071521084,50.7389001929196</coordinates>
      </Point>
    </Placemark>
    <Placemark id="d2d40aac-411c-4fd5-aaa6-e37c342b279e">
      <name>Antalya</name>
      <description><![CDATA[Langemarckstraße 29a<br />Bonn]]></description>
      <Point>
        <coordinates>7.1744830515184,50.7102898135661</coordinates>
      </Point>
    </Placemark>
    <Placemark id="bb274e8f-0a80-4527-ba15-54dcfc854bd2">
      <name>Hokkaido</name>
      <description><![CDATA[Telefon: +49 2241 9447360<br /><a href="mailto:info@hokkaido-troisdorf.de">info@hokkaido-troisdorf.de</a><br /><a href="http://www.hokkaido-troisdorf.de/" target="_blank">Website</a><br />Lindlaustraße 2a<br />53842 Troisdorf]]></description>
      <Point>
        <coordinates>7.14301810972095,50.814014408413</coordinates>
      </Point>
    </Placemark>
    <Placemark id="b350f587-30a6-4ef4-aa31-20bcb8b33066">
      <name>Korkeiche</name>
      <description><![CDATA[Lyngsbergstraße 102a<br />]]></description>
      <Point>
        <coordinates>7.16870780228454,50.6636821196888</coordinates>
      </Point>
    </Placemark>
    <Placemark id="a3ba7b26-5ce7-4613-a165-25fe09ef928d">
      <name>Jasmin</name>
      <Point>
        <coordinates>7.20468710631635,50.8032200164324</coordinates>
      </Point>
    </Placemark>
    <Placemark id="e8964139-72a8-4e20-bd5f-16842bddc23d">
      <name>Zum EWG</name>
      <description><![CDATA[Kölner Straße 126<br />53840 Troisdorf]]></description>
      <Point>
        <coordinates>7.15231948586769,50.8164158471636</coordinates>
      </Point>
    </Placemark>
    <Placemark id="735bfd7a-9f1d-44b5-9a95-801e4e55781d">
      <name>Restaurant Tannenhof</name>
      <Point>
        <coordinates>7.25502887450147,50.703766176172</coordinates>
      </Point>
    </Placemark>
    <Placemark id="765a3bca-0b02-4426-84da-2fc5279da623">
      <name>Gaststätte Strick</name>
      <description><![CDATA[Schmittstraße 26<br />53123 Bonn]]></description>
      <Point>
        <coordinates>7.04892177029421,50.7133352959769</coordinates>
      </Point>
    </Placemark>
    <Placemark id="e89ce847-2127-44ec-884b-13d77661fddd">
      <name>Parkrestaurant RheinAue</name>
      <description><![CDATA[Telefon: +49 228 374030<br /><a href="http://www.rheinaue.de" target="_blank">Website</a><br />Ludwig-Erhard-Allee 20<br />53175 Bonn]]></description>
      <Point>
        <coordinates>7.14077435814668,50.710801499781</coordinates>
      </Point>
    </Placemark>
    <Placemark id="8dd10151-e205-46fc-a221-c8aa3d479c84">
      <name>Taj India</name>
      <description>Telefon: 0228 652202</description>
      <Point>
        <coordinates>7.09971240766541,50.7395261112257</coordinates>
      </Point>
    </Placemark>
    <Placemark id="2303f7f9-db31-471b-9e16-252ca1a376d4">
      <name>Asia Stube</name>
      <description><![CDATA[Telefon: +4922830898678<br /><a href="mailto:asia-stube@t-online.de">asia-stube@t-online.de</a><br /><a href="http://www.asia-stube.de" target="_blank">Website</a><br />Gotenstraße 128<br />53175 Bonn]]></description>
      <Point>
        <coordinates>7.14831656459645,50.6961008106485</coordinates>
      </Point>
    </Placemark>
    <Placemark id="db70b64d-19aa-498f-a7e9-c0f331b912e6">
      <name>Weinmühle</name>
      <description><![CDATA[Lindenstraße 7<br />53639 Königswinter]]></description>
      <Point>
        <coordinates>7.18797242331933,50.6984792096842</coordinates>
      </Point>
    </Placemark>
    <Placemark id="cc776a44-efcf-4fe2-81b3-1a5ef28fde06">
      <name>Salvator</name>
      <description><![CDATA[Telefon: +4922894499200<br />Telefax: +4922894499202<br /><a href="mailto:info@salvator-bonn.de">info@salvator-bonn.de</a><br /><a href="http://www.salvator-bonn.de" target="_blank">Website</a><br />In der Sürst 5-7<br />Bonn]]></description>
      <Point>
        <coordinates>7.09824644695326,50.7334316078633</coordinates>
      </Point>
    </Placemark>
    <Placemark id="5a77827f-f53e-44f2-9bab-2623fea92124">
      <name>Mika</name>
      <description><![CDATA[Telefon: +49 228 9086666<br />Bonngasse 28<br />53111 Bonn]]></description>
      <Point>
        <coordinates>7.10120127541731,50.7370454131206</coordinates>
      </Point>
    </Placemark>
    <Placemark id="880e362b-7468-4ee3-b1d1-59a2e1596b70">
      <name>Mr. Mai</name>
      <description><![CDATA[<a href="http://www.mai.de" target="_blank">Website</a>]]></description>
      <Point>
        <coordinates>7.27718168873397,50.709532894493</coordinates>
      </Point>
    </Placemark>
    <Placemark id="7f78cb39-4b6d-451d-a794-bfe49e78d2eb">
      <name>Mario´s Pizza Express</name>
      <description><![CDATA[Telefon: +49 2232 35500<br /><a href="http://marios-pizzaexpress.de/" target="_blank">Website</a><br />Badorfer Straße 58<br />50321 Brühl]]></description>
      <Point>
        <coordinates>6.89173508190676,50.8135358705746</coordinates>
      </Point>
    </Placemark>
    <Placemark id="f8f06f29-92ce-4c0e-bb16-edbbaa1962d8">
      <name>Mahlzeit</name>
      <description><![CDATA[Am Herrenwingert<br />53347 Alfter]]></description>
      <Point>
        <coordinates>7.00977317125089,50.7373355879629</coordinates>
      </Point>
    </Placemark>
    <Placemark id="da1d6f6d-8a29-474a-9f06-c03619ec1d2a">
      <name>Cancun</name>
      <description><![CDATA[Telefon: +4922896101165<br /><a href="mailto:info@cancunstory.de">info@cancunstory.de</a><br /><a href="http://www.cancunstory.de" target="_blank">Website</a><br />Clemens-August-Straße 2-4<br />53115 Bonn]]></description>
      <Point>
        <coordinates>7.08979347979275,50.724216797238</coordinates>
      </Point>
    </Placemark>
    <Placemark id="07c1a55f-f172-4bd6-9a05-1d19a2deb83d">
      <name>Casa del Gatto</name>
      <description><![CDATA[Telefon: +49228695522<br /><a href="mailto:info@casadelgatto.de">info@casadelgatto.de</a><br /><a href="http://www.casadelgatto.de" target="_blank">Website</a><br />Kaiserplatz 20<br />53113 Bonn]]></description>
      <Point>
        <coordinates>7.10051460321413,50.732083793273</coordinates>
      </Point>
    </Placemark>
    <Placemark id="d207a8fd-3c0a-4be1-8907-18f28acd3e54">
      <name>Maruzzella</name>
      <description><![CDATA[<a href="http://www.ristorante-maruzzella.de" target="_blank">Website</a><br />Raiffeisenstraße 5<br />]]></description>
      <Point>
        <coordinates>7.21801028978971,50.7295643761924</coordinates>
      </Point>
    </Placemark>
    <Placemark id="6e9bf46c-f4ab-4510-95ad-04057d9e38c6">
      <name>Fu Zhou Garden</name>
      <description><![CDATA[Schieffelingsweg 12<br />53123 Bonn]]></description>
      <Point>
        <coordinates>7.05793081063375,50.7140974082483</coordinates>
      </Point>
    </Placemark>